{
  "type": "FeatureCollection",
  "generator": "overpass-ide",
  "copyright": "The data included in this document is from www.openstreetmap.org. The data is made available under ODbL.",
  "timestamp": "2020-04-20T17:56:02Z",
  "features": [
    {
      "type": "Feature",
      "properties": {
        "@id": "node/247439149",
        "amenity": "bar",
        "name": "Bar Hemingway"
      },
      "geometry": {
        "type": "Point",
        "coordinates": [
          2.3275703,
          48.8688161
        ]
      },
      "id": "node/247439149"
    },
    {
      "type": "Feature",
      "properties": {
        "@id": "node/247455913",
        "amenity": "bar",
        "name": "Juvénile's",
        "opening_hours": "Tu-Sa 12:00-23:00"
      },
      "geometry": {
        "type": "Point",
        "coordinates": [
          2.3370822,
          48.8663165
        ]
      },
      "id": "node/247455913"
    },
    {
      "type": "Feature",
      "properties": {
        "@id": "node/247467737",
        "amenity": "bar",
        "name": "Willi's Wine Bar"
      },
      "geometry": {
        "type": "Point",
        "coordinates": [
          2.3382902,
          48.8663449
        ]
      },
      "id": "node/247467737"
    },
    {
      "type": "Feature",
      "properties": {
        "@id": "node/251010491",
        "amenity": "bar",
        "name": "Footsie"
      },
      "geometry": {
        "type": "Point",
        "coordinates": [
          2.3317879,
          48.8695611
        ]
      },
      "id": "node/251010491"
    },
    {
      "type": "Feature",
      "properties": {
        "@id": "node/251023849",
        "addr:housenumber": "5",
        "addr:postcode": "75002",
        "addr:street": "Rue Daunou",
        "amenity": "bar",
        "name": "Harry's Bar",
        "source": "www.harrysbar.fr",
        "toilets:wheelchair": "no",
        "wheelchair": "no",
        "wheelchair:description": "marche à l'entrée, beaucoup de monde donc impossible de faire passer un fauteuil roulant et toilettes à l'étage.",
        "wikidata": "Q1334247"
      },
      "geometry": {
        "type": "Point",
        "coordinates": [
          2.3321035,
          48.8691942
        ]
      },
      "id": "node/251023849"
    },
    {
      "type": "Feature",
      "properties": {
        "@id": "node/251758249",
        "amenity": "bar",
        "bar": "cocktail",
        "name": "Buddha Bar",
        "wikidata": "Q851372"
      },
      "geometry": {
        "type": "Point",
        "coordinates": [
          2.3215688,
          48.8680799
        ]
      },
      "id": "node/251758249"
    },
    {
      "type": "Feature",
      "properties": {
        "@id": "node/252608626",
        "amenity": "bar",
        "name": "La Mercerie",
        "source": "survey"
      },
      "geometry": {
        "type": "Point",
        "coordinates": [
          2.3782276,
          48.8657437
        ]
      },
      "id": "node/252608626"
    },
    {
      "type": "Feature",
      "properties": {
        "@id": "node/282468472",
        "addr:city": "Paris",
        "addr:housenumber": "28",
        "addr:postcode": "75002",
        "addr:street": "Rue Greneta",
        "amenity": "bar",
        "checked": "2015-11-28",
        "name": "La Cordonnerie",
        "opening_hours": "Mo-Su 08:00-02:00",
        "source": "survey 2015",
        "toilets:wheelchair": "no",
        "wheelchair": "yes"
      },
      "geometry": {
        "type": "Point",
        "coordinates": [
          2.3505855,
          48.8652332
        ]
      },
      "id": "node/282468472"
    },
    {
      "type": "Feature",
      "properties": {
        "@id": "node/293982735",
        "addr:housenumber": "6",
        "addr:postcode": "75011",
        "addr:street": "Place de la République",
        "amenity": "bar",
        "name": "Mon Coco",
        "opening_hours": "Mo-Su 11:00-05:00",
        "phone": "+33147004410",
        "website": "http://www.moncoco.paris",
        "wheelchair": "limited"
      },
      "geometry": {
        "type": "Point",
        "coordinates": [
          2.3656152,
          48.8666591
        ]
      },
      "id": "node/293982735"
    },
    {
      "type": "Feature",
      "properties": {
        "@id": "node/294038638",
        "amenity": "bar",
        "name": "Le Navigateur"
      },
      "geometry": {
        "type": "Point",
        "coordinates": [
          2.3739646,
          48.8779867
        ]
      },
      "id": "node/294038638"
    },
    {
      "type": "Feature",
      "properties": {
        "@id": "node/294141121",
        "amenity": "bar",
        "name": "Café Chéri(e)"
      },
      "geometry": {
        "type": "Point",
        "coordinates": [
          2.3752962,
          48.8740973
        ]
      },
      "id": "node/294141121"
    },
    {
      "type": "Feature",
      "properties": {
        "@id": "node/294266518",
        "addr:city": "Paris",
        "addr:housenumber": "10",
        "addr:postcode": "75019",
        "addr:street": "Place de la Bataille de Stalingrad",
        "amenity": "bar",
        "layer": "0",
        "name": "25° Est"
      },
      "geometry": {
        "type": "Point",
        "coordinates": [
          2.3707556,
          48.8838984
        ]
      },
      "id": "node/294266518"
    },
    {
      "type": "Feature",
      "properties": {
        "@id": "node/305903409",
        "amenity": "bar",
        "bar": "wine_bar",
        "name": "Les Caves Populaires",
        "old_name": "Caves du Chalet",
        "phone": "+33 1 53 04 08 32",
        "smoking": "outside",
        "source": "survey:2015-04-03"
      },
      "geometry": {
        "type": "Point",
        "coordinates": [
          2.3246274,
          48.8847758
        ]
      },
      "id": "node/305903409"
    },
    {
      "type": "Feature",
      "properties": {
        "@id": "node/333550932",
        "addr:city": "Paris",
        "addr:housenumber": "40",
        "addr:postcode": "75010",
        "addr:street": "Rue d'Enghien",
        "amenity": "bar",
        "brewery": "yes",
        "cuisine": "tapas",
        "name": "Kouto",
        "opening_hours": "Tu-Sa 18:00-02:00",
        "phone": "+33 6 49 28 28 45",
        "website": "https://kouto.business.site/"
      },
      "geometry": {
        "type": "Point",
        "coordinates": [
          2.3492571,
          48.872313
        ]
      },
      "id": "node/333550932"
    },
    {
      "type": "Feature",
      "properties": {
        "@id": "node/416560238",
        "amenity": "bar",
        "name": "Café Charbon",
        "source": "survey"
      },
      "geometry": {
        "type": "Point",
        "coordinates": [
          2.3778299,
          48.8658567
        ]
      },
      "id": "node/416560238"
    },
    {
      "type": "Feature",
      "properties": {
        "@id": "node/418055930",
        "amenity": "bar",
        "name": "Le Little",
        "opening_hours": "Mo-Su 17:00-02:00"
      },
      "geometry": {
        "type": "Point",
        "coordinates": [
          2.3660388,
          48.8667141
        ]
      },
      "id": "node/418055930"
    },
    {
      "type": "Feature",
      "properties": {
        "@id": "node/418074933",
        "amenity": "bar",
        "name": "Le Grenier"
      },
      "geometry": {
        "type": "Point",
        "coordinates": [
          2.381594,
          48.8665891
        ]
      },
      "id": "node/418074933"
    },
    {
      "type": "Feature",
      "properties": {
        "@id": "node/418140401",
        "addr:city": "Paris",
        "addr:housenumber": "141",
        "addr:postcode": "75011",
        "addr:street": "Rue Saint-Maur",
        "amenity": "bar",
        "name": "Chair De Poule",
        "opening_hours": "Mo-Sa 08:00-18:00; Su 17:00-00:00",
        "phone": "+33 1 43 38 89 06",
        "website": "http://chairdepouleparis.com"
      },
      "geometry": {
        "type": "Point",
        "coordinates": [
          2.3754429,
          48.8676415
        ]
      },
      "id": "node/418140401"
    },
    {
      "type": "Feature",
      "properties": {
        "@id": "node/442505759",
        "amenity": "bar",
        "brewery": "Jeanlain Six",
        "name": "La Caravane",
        "opening_hours": "Mo-Su 11:00-2:00",
        "phone": "+33 1 49 23 01 86",
        "website": "http://www.lacaravane.eu/"
      },
      "geometry": {
        "type": "Point",
        "coordinates": [
          2.3714939,
          48.8683288
        ]
      },
      "id": "node/442505759"
    },
    {
      "type": "Feature",
      "properties": {
        "@id": "node/446819198",
        "amenity": "bar",
        "cuisine": "couscous",
        "description": "Bar & restaurant",
        "level": "0",
        "name": "Le Dellys",
        "opening_hours": "Mo 10:00-24:00; Tu-Fr 00:00-02:00,10:00-24:00; Sa 16:00-24:00; Su 00:00-02:00",
        "phone": "+33 1 40 34 90 74",
        "restaurant": "yes",
        "source": "survey 02/2019",
        "website": "http://www.le-dellys.com"
      },
      "geometry": {
        "type": "Point",
        "coordinates": [
          2.3578049,
          48.8783181
        ]
      },
      "id": "node/446819198"
    },
    {
      "type": "Feature",
      "properties": {
        "@id": "node/534660992",
        "addr:city": "Paris",
        "addr:housenumber": "1",
        "addr:postcode": "75018",
        "addr:street": "Rue Paul Albert",
        "amenity": "bar",
        "name": "Botak",
        "opening_hours": "Closed",
        "source": "ground"
      },
      "geometry": {
        "type": "Point",
        "coordinates": [
          2.344949,
          48.8864916
        ]
      },
      "id": "node/534660992"
    },
    {
      "type": "Feature",
      "properties": {
        "@id": "node/568454764",
        "amenity": "bar",
        "cuisine": "chinese",
        "name": "Chez Chen"
      },
      "geometry": {
        "type": "Point",
        "coordinates": [
          2.380134,
          48.8919041
        ]
      },
      "id": "node/568454764"
    },
    {
      "type": "Feature",
      "properties": {
        "@id": "node/568457895",
        "amenity": "bar"
      },
      "geometry": {
        "type": "Point",
        "coordinates": [
          2.3820001,
          48.8906427
        ]
      },
      "id": "node/568457895"
    },
    {
      "type": "Feature",
      "properties": {
        "@id": "node/599513255",
        "addr:city": "Paris",
        "addr:housenumber": "17",
        "addr:postcode": "75004",
        "addr:street": "Rue des Archives",
        "amenity": "bar",
        "lgbtq": "primary",
        "name": "Open Café",
        "outdoor_seating": "yes",
        "survey:date": "2017-07-05",
        "toilets:wheelchair": "no",
        "wheelchair": "designated"
      },
      "geometry": {
        "type": "Point",
        "coordinates": [
          2.3550423,
          48.8584562
        ]
      },
      "id": "node/599513255"
    },
    {
      "type": "Feature",
      "properties": {
        "@id": "node/599513533",
        "addr:city": "Paris",
        "addr:housenumber": "15",
        "addr:postcode": "75004",
        "addr:street": "Rue des Archives",
        "amenity": "bar",
        "facebook": "https://www.facebook.com/cafecoxbarparis",
        "lgbtq": "primary",
        "lgbtq:men": "primary",
        "name": "Cox",
        "opening_hours": "Mo-Su 17:00-02:00",
        "smoking": "outside",
        "twitter": "cafecoxbarparis",
        "website": "http://cox.fr/"
      },
      "geometry": {
        "type": "Point",
        "coordinates": [
          2.3548214,
          48.8582377
        ]
      },
      "id": "node/599513533"
    },
    {
      "type": "Feature",
      "properties": {
        "@id": "node/599514799",
        "addr:city": "Paris",
        "amenity": "bar",
        "lgbtq": "primary",
        "name": "Le Raidd"
      },
      "geometry": {
        "type": "Point",
        "coordinates": [
          2.3534861,
          48.8589115
        ]
      },
      "id": "node/599514799"
    },
    {
      "type": "Feature",
      "properties": {
        "@id": "node/599514968",
        "amenity": "bar",
        "name": "QG"
      },
      "geometry": {
        "type": "Point",
        "coordinates": [
          2.3534175,
          48.860252
        ]
      },
      "id": "node/599514968"
    },
    {
      "type": "Feature",
      "properties": {
        "@id": "node/599515061",
        "addr:city": "Paris",
        "addr:housenumber": "10",
        "addr:postcode": "75004",
        "addr:street": "Rue de la Verrerie",
        "amenity": "bar",
        "lgbtq": "primary",
        "name": "Quetzal Bar",
        "phone": "+33 1 48 87 99 07",
        "website": "https://www.facebook.com/quetzalbarparis/"
      },
      "geometry": {
        "type": "Point",
        "coordinates": [
          2.3552063,
          48.8572153
        ]
      },
      "id": "node/599515061"
    },
    {
      "type": "Feature",
      "properties": {
        "@id": "node/629665565",
        "addr:city": "Paris",
        "addr:country": "FR",
        "addr:housenumber": "10",
        "addr:postcode": "75018",
        "addr:street": "Rue Hégésippe Moreau",
        "amenity": "bar",
        "name": "Karambole cafe",
        "source": "cadastre-dgi-fr source : Direction Générale des Impôts - Cadastre ; mise à jour : 2010",
        "wifi": "yes"
      },
      "geometry": {
        "type": "Point",
        "coordinates": [
          2.327201,
          48.887279
        ]
      },
      "id": "node/629665565"
    },
    {
      "type": "Feature",
      "properties": {
        "@id": "node/667281515",
        "amenity": "bar",
        "name": "l'orange mécanique"
      },
      "geometry": {
        "type": "Point",
        "coordinates": [
          2.3755821,
          48.8671317
        ]
      },
      "id": "node/667281515"
    },
    {
      "type": "Feature",
      "properties": {
        "@id": "node/677967483",
        "addr:city": "Paris",
        "addr:housenumber": "64",
        "addr:postcode": "75001",
        "addr:street": "Rue des Lombards",
        "amenity": "bar",
        "brewery": "yes",
        "name": "Au Diable des Lombards",
        "opening_hours": "Mo-Su 08:00-02:00",
        "outdoor_seating": "yes",
        "payment:cash": "yes",
        "payment:credit_cards": "yes",
        "payment:debit_cards": "yes",
        "payment:visa": "yes",
        "smoking": "no",
        "source": "cadastre-dgi-fr source : Direction Générale des Impôts - Cadastre. Mise à jour : 2010",
        "toilets:wheelchair": "yes",
        "wheelchair": "yes"
      },
      "geometry": {
        "type": "Point",
        "coordinates": [
          2.3475059,
          48.859895
        ]
      },
      "id": "node/677967483"
    },
    {
      "type": "Feature",
      "properties": {
        "@id": "node/678029796",
        "addr:housenumber": "71",
        "addr:street": "Rue Saint-Honoré",
        "amenity": "bar",
        "brewery": "Guinness;Kronenbourg;1664;Grimbergen;Carlsberg",
        "name": "Le Bar des Halles",
        "source": "cadastre-dgi-fr source : Direction Générale des Impôts - Cadastre. Mise à jour : 2010"
      },
      "geometry": {
        "type": "Point",
        "coordinates": [
          2.3442771,
          48.8611078
        ]
      },
      "id": "node/678029796"
    },
    {
      "type": "Feature",
      "properties": {
        "@id": "node/679414266",
        "addr:city": "Paris",
        "addr:housenumber": "143",
        "addr:street": "Rue Saint-Honoré",
        "amenity": "bar",
        "name": "L'Oratoire",
        "source": "cadastre-dgi-fr source : Direction Générale des Impôts - Cadastre. Mise à jour : 2010"
      },
      "geometry": {
        "type": "Point",
        "coordinates": [
          2.3406029,
          48.8617693
        ]
      },
      "id": "node/679414266"
    },
    {
      "type": "Feature",
      "properties": {
        "@id": "node/681315248",
        "addr:housenumber": "58",
        "addr:street": "Rue Jean-Jacques Rousseau",
        "amenity": "bar",
        "name": "Le Ballroom du Beefclub"
      },
      "geometry": {
        "type": "Point",
        "coordinates": [
          2.3435193,
          48.8639477
        ]
      },
      "id": "node/681315248"
    },
    {
      "type": "Feature",
      "properties": {
        "@id": "node/681479170",
        "amenity": "bar",
        "name": "Le Nustrale",
        "source": "cadastre-dgi-fr source : Direction Générale des Impôts - Cadastre. Mise à jour : 2010"
      },
      "geometry": {
        "type": "Point",
        "coordinates": [
          2.3408552,
          48.8646538
        ]
      },
      "id": "node/681479170"
    },
    {
      "type": "Feature",
      "properties": {
        "@id": "node/683283114",
        "addr:housenumber": "10",
        "addr:street": "Rue du Marché Saint-Honoré",
        "amenity": "bar",
        "name": "Le Rubis",
        "name:fr": "Le Rubis",
        "source": "cadastre-dgi-fr source : Direction Générale des Impôts - Cadastre. Mise à jour : 2010"
      },
      "geometry": {
        "type": "Point",
        "coordinates": [
          2.3313684,
          48.8662382
        ]
      },
      "id": "node/683283114"
    },
    {
      "type": "Feature",
      "properties": {
        "@id": "node/685604405",
        "amenity": "bar",
        "name": "Le Gaillon",
        "opening_hours:covid19": "off",
        "source": "cadastre-dgi-fr source : Direction Générale des Impôts - Cadastre. Mise à jour : 2010",
        "tobacco": "yes"
      },
      "geometry": {
        "type": "Point",
        "coordinates": [
          2.3345642,
          48.868971
        ]
      },
      "id": "node/685604405"
    },
    {
      "type": "Feature",
      "properties": {
        "@id": "node/687029204",
        "addr:housenumber": "19",
        "addr:street": "Rue de Choiseul",
        "amenity": "bar",
        "name": "Chez Xala",
        "name:fr": "Chez Xala",
        "source": "cadastre-dgi-fr source : Direction Générale des Impôts - Cadastre. Mise à jour : 2010"
      },
      "geometry": {
        "type": "Point",
        "coordinates": [
          2.3359056,
          48.870302
        ]
      },
      "id": "node/687029204"
    },
    {
      "type": "Feature",
      "properties": {
        "@id": "node/687750878",
        "amenity": "bar",
        "description": "Bar à Tapas",
        "name": "A. Noste",
        "source": "survey"
      },
      "geometry": {
        "type": "Point",
        "coordinates": [
          2.3392086,
          48.8691957
        ]
      },
      "id": "node/687750878"
    },
    {
      "type": "Feature",
      "properties": {
        "@id": "node/687751001",
        "amenity": "bar",
        "name": "Le Louis d'Or",
        "source": "cadastre-dgi-fr source : Direction Générale des Impôts - Cadastre. Mise à jour : 2010"
      },
      "geometry": {
        "type": "Point",
        "coordinates": [
          2.339716,
          48.8693708
        ]
      },
      "id": "node/687751001"
    },
    {
      "type": "Feature",
      "properties": {
        "@id": "node/687892841",
        "addr:housenumber": "53",
        "addr:street": "Rue Vivienne",
        "amenity": "bar",
        "name": "Chez Carmen",
        "name:fr": "Chez Carmen"
      },
      "geometry": {
        "type": "Point",
        "coordinates": [
          2.3413564,
          48.8714764
        ]
      },
      "id": "node/687892841"
    },
    {
      "type": "Feature",
      "properties": {
        "@id": "node/689456582",
        "addr:housenumber": "13",
        "addr:street": "Rue du Croissant",
        "amenity": "bar",
        "name": "Le Macareux",
        "source": "cadastre-dgi-fr source : Direction Générale des Impôts - Cadastre. Mise à jour : 2010"
      },
      "geometry": {
        "type": "Point",
        "coordinates": [
          2.3442332,
          48.8688139
        ]
      },
      "id": "node/689456582"
    },
    {
      "type": "Feature",
      "properties": {
        "@id": "node/689543621",
        "amenity": "bar",
        "brewery": "chouffe;guinness",
        "name": "Thirsty Mad Cat",
        "outdoor_seating": "yes",
        "source": "cadastre-dgi-fr source : Direction Générale des Impôts - Cadastre. Mise à jour : 2010"
      },
      "geometry": {
        "type": "Point",
        "coordinates": [
          2.3438772,
          48.8678019
        ]
      },
      "id": "node/689543621"
    },
    {
      "type": "Feature",
      "properties": {
        "@id": "node/691436463",
        "addr:housenumber": "21",
        "addr:postcode": "75002",
        "addr:street": "Rue Saint-Sauveur",
        "amenity": "bar",
        "name": "Avek",
        "opening_hours": "Mo-Sa 18:00-02:00",
        "source": "cadastre-dgi-fr source : Direction Générale des Impôts - Cadastre. Mise à jour : 2010",
        "wheelchair": "limited"
      },
      "geometry": {
        "type": "Point",
        "coordinates": [
          2.3488784,
          48.865964
        ]
      },
      "id": "node/691436463"
    },
    {
      "type": "Feature",
      "properties": {
        "@id": "node/694399350",
        "amenity": "bar",
        "brewery": "Leffe",
        "name": "Lounge Paradise",
        "source": "cadastre-dgi-fr source : Direction Générale des Impôts - Cadastre. Mise à jour : 2010"
      },
      "geometry": {
        "type": "Point",
        "coordinates": [
          2.3483529,
          48.8704075
        ]
      },
      "id": "node/694399350"
    },
    {
      "type": "Feature",
      "properties": {
        "@id": "node/700449087",
        "addr:housenumber": "33",
        "addr:postcode": "75004",
        "addr:street": "Rue de la Verrerie",
        "amenity": "bar",
        "name": "Le perchoir Marais",
        "name:fr": "Le perchoir Marais",
        "opening_hours": "Mo-Sa 20:00-02:00; Su 19:00-02:00",
        "source": "cadastre-dgi-fr source : Direction Générale des Impôts - Cadastre. Mise à jour : 2010",
        "website": "http://leperchoir.fr"
      },
      "geometry": {
        "type": "Point",
        "coordinates": [
          2.3539471,
          48.8575589
        ]
      },
      "id": "node/700449087"
    },
    {
      "type": "Feature",
      "properties": {
        "@id": "node/702751011",
        "addr:housenumber": "37",
        "addr:street": "Rue Vieille du Temple",
        "amenity": "bar",
        "name": "Yono's",
        "opening_hours": "Tu-Su 17:00-1:30",
        "phone": "+33 1 42 74 31 65",
        "source": "cadastre-dgi-fr source : Direction Générale des Impôts - Cadastre. Mise à jour : 2010"
      },
      "geometry": {
        "type": "Point",
        "coordinates": [
          2.3576815,
          48.8577487
        ]
      },
      "id": "node/702751011"
    },
    {
      "type": "Feature",
      "properties": {
        "@id": "node/702916141",
        "addr:housenumber": "4",
        "addr:street": "Rue du Bourg Tibourg",
        "amenity": "bar",
        "name": "Feria Café",
        "phone": "+33 1 42 72 43 99",
        "source": "cadastre-dgi-fr source : Direction Générale des Impôts - Cadastre. Mise à jour : 2010"
      },
      "geometry": {
        "type": "Point",
        "coordinates": [
          2.3558116,
          48.8567788
        ]
      },
      "id": "node/702916141"
    },
    {
      "type": "Feature",
      "properties": {
        "@id": "node/704819800",
        "addr:housenumber": "64",
        "amenity": "bar",
        "name": "Bodega 64",
        "phone": "+33 1 48 04 59 11",
        "source": "cadastre-dgi-fr source : Direction Générale des Impôts - Cadastre. Mise à jour : 2010"
      },
      "geometry": {
        "type": "Point",
        "coordinates": [
          2.3580795,
          48.8554369
        ]
      },
      "id": "node/704819800"
    },
    {
      "type": "Feature",
      "properties": {
        "@id": "node/705657876",
        "addr:city": "Paris",
        "addr:country": "FR",
        "addr:housenumber": "78",
        "addr:street": "Rue Quincampoix",
        "amenity": "bar",
        "name": "L'Art Brut Bistrot",
        "opening_hours": "Mo-Su 16:00-02:00",
        "source": "cadastre-dgi-fr source : Direction Générale des Impôts - Cadastre. Mise à jour : 2010",
        "toilets:wheelchair": "no",
        "website": "http://www.artbrutbistrot.fr",
        "wheelchair": "no"
      },
      "geometry": {
        "type": "Point",
        "coordinates": [
          2.3511124,
          48.8621665
        ]
      },
      "id": "node/705657876"
    },
    {
      "type": "Feature",
      "properties": {
        "@id": "node/706391394",
        "amenity": "bar",
        "name": "O'Kfée",
        "wheelchair": "limited"
      },
      "geometry": {
        "type": "Point",
        "coordinates": [
          2.355008,
          48.8643703
        ]
      },
      "id": "node/706391394"
    },
    {
      "type": "Feature",
      "properties": {
        "@id": "node/726884432",
        "amenity": "bar",
        "drink:natural_wine": "yes",
        "drink:wine": "yes",
        "name": "La Buvette"
      },
      "geometry": {
        "type": "Point",
        "coordinates": [
          2.3793124,
          48.8628942
        ]
      },
      "id": "node/726884432"
    },
    {
      "type": "Feature",
      "properties": {
        "@id": "node/729117604",
        "amenity": "bar",
        "name": "Le Sans Souci",
        "source": "cadastre-dgi-fr source : Direction Générale des Impôts - Cadastre. Mise à jour : 2010"
      },
      "geometry": {
        "type": "Point",
        "coordinates": [
          2.3361254,
          48.8813024
        ]
      },
      "id": "node/729117604"
    },
    {
      "type": "Feature",
      "properties": {
        "@id": "node/735096099",
        "addr:housenumber": "88",
        "addr:street": "Rue Saint-Maur",
        "amenity": "bar",
        "name": "La Popina",
        "opening_hours": "Mo-Fr 17:00-02:00; Sa-Su 18:00-02:00",
        "phone": "+33 1 48 07 33 05",
        "website": "https://www.lapopina.paris"
      },
      "geometry": {
        "type": "Point",
        "coordinates": [
          2.3779376,
          48.8649817
        ]
      },
      "id": "node/735096099"
    },
    {
      "type": "Feature",
      "properties": {
        "@id": "node/735171891",
        "amenity": "bar",
        "name": "L'oasis 244"
      },
      "geometry": {
        "type": "Point",
        "coordinates": [
          2.3666359,
          48.8821123
        ]
      },
      "id": "node/735171891"
    },
    {
      "type": "Feature",
      "properties": {
        "@id": "node/735172024",
        "amenity": "bar",
        "cuisine": "french",
        "name": "Cristal Bar"
      },
      "geometry": {
        "type": "Point",
        "coordinates": [
          2.364716,
          48.8812021
        ]
      },
      "id": "node/735172024"
    },
    {
      "type": "Feature",
      "properties": {
        "@id": "node/749696090",
        "addr:city": "Paris",
        "addr:country": "FR",
        "addr:housenumber": "68",
        "addr:postcode": "75019",
        "addr:street": "Quai de la Loire",
        "amenity": "bar",
        "name": "Bar Ourcq",
        "note:fr": "Fermé l'hiver",
        "opening_hours": "We-Sa 15:00-22:00; Su 15:00-02:00",
        "phone": "+33142401226",
        "wheelchair": "no"
      },
      "geometry": {
        "type": "Point",
        "coordinates": [
          2.377235,
          48.8864617
        ]
      },
      "id": "node/749696090"
    },
    {
      "type": "Feature",
      "properties": {
        "@id": "node/773602071",
        "amenity": "bar",
        "contact:city": "Paris",
        "contact:housenumber": "337",
        "contact:postcode": "75003",
        "contact:street": "Rue Saint-Martin",
        "name": "Le Parisien",
        "smoking": "outside"
      },
      "geometry": {
        "type": "Point",
        "coordinates": [
          2.354882,
          48.8680162
        ]
      },
      "id": "node/773602071"
    },
    {
      "type": "Feature",
      "properties": {
        "@id": "node/811326704",
        "amenity": "bar",
        "name": "El Tonel"
      },
      "geometry": {
        "type": "Point",
        "coordinates": [
          2.3323292,
          48.8643001
        ]
      },
      "id": "node/811326704"
    },
    {
      "type": "Feature",
      "properties": {
        "@id": "node/812129610",
        "amenity": "bar",
        "name": "Le Comptoir du Faubourg",
        "source": "cadastre-dgi-fr source : Direction Générale des Impôts - Cadastre. Mise à jour : 2010"
      },
      "geometry": {
        "type": "Point",
        "coordinates": [
          2.3211802,
          48.8706806
        ]
      },
      "id": "node/812129610"
    },
    {
      "type": "Feature",
      "properties": {
        "@id": "node/813394579",
        "amenity": "bar",
        "name": "Elysée Lounge",
        "source": "cadastre-dgi-fr source : Direction Générale des Impôts - Cadastre. Mise à jour : 2010"
      },
      "geometry": {
        "type": "Point",
        "coordinates": [
          2.316952,
          48.871252
        ]
      },
      "id": "node/813394579"
    },
    {
      "type": "Feature",
      "properties": {
        "@id": "node/819031352",
        "amenity": "bar",
        "name": "Le Seven",
        "source": "cadastre-dgi-fr source : Direction Générale des Impôts - Cadastre. Mise à jour : 2010"
      },
      "geometry": {
        "type": "Point",
        "coordinates": [
          2.3235567,
          48.8803557
        ]
      },
      "id": "node/819031352"
    },
    {
      "type": "Feature",
      "properties": {
        "@id": "node/822951734",
        "amenity": "bar",
        "name": "Le Treilhard Bar",
        "source": "cadastre-dgi-fr source : Direction Générale des Impôts - Cadastre. Mise à jour : 2010"
      },
      "geometry": {
        "type": "Point",
        "coordinates": [
          2.314835,
          48.8769627
        ]
      },
      "id": "node/822951734"
    },
    {
      "type": "Feature",
      "properties": {
        "@id": "node/892913317",
        "addr:city": "Paris",
        "addr:housenumber": "49",
        "addr:street": "Rue Saint-Honoré",
        "amenity": "bar",
        "lottery": "yes",
        "name": "Le Sous Bock",
        "opening_hours": "Su-We 09:00-02:00; Th-Sa 09:00-05:00",
        "phone": "+33 1 40 26 45 61",
        "source": "cadastre-dgi-fr source : Direction Générale des Impôts - Cadastre. Mise à jour : 2010"
      },
      "geometry": {
        "type": "Point",
        "coordinates": [
          2.3451379,
          48.8608729
        ]
      },
      "id": "node/892913317"
    },
    {
      "type": "Feature",
      "properties": {
        "@id": "node/914241249",
        "addr:housenumber": "23",
        "addr:street": "Rue de la Grange aux Belles",
        "amenity": "bar",
        "name": "L'Apostrophe",
        "source": "cadastre-dgi-fr source : Direction Générale des Impôts - Cadastre. Mise à jour : 2010"
      },
      "geometry": {
        "type": "Point",
        "coordinates": [
          2.3662628,
          48.8746858
        ]
      },
      "id": "node/914241249"
    },
    {
      "type": "Feature",
      "properties": {
        "@id": "node/916588773",
        "addr:housenumber": "23",
        "addr:postcode": "75018",
        "addr:street": "Rue Marcadet",
        "amenity": "bar",
        "name": "Café Leon",
        "source": "local knowledge",
        "wifi": "free"
      },
      "geometry": {
        "type": "Point",
        "coordinates": [
          2.3534684,
          48.8903045
        ]
      },
      "id": "node/916588773"
    },
    {
      "type": "Feature",
      "properties": {
        "@id": "node/918317353",
        "alt_name": "Le Landon",
        "amenity": "bar",
        "level": "0",
        "name": "Le Landon Café",
        "source": "survey 12/2018"
      },
      "geometry": {
        "type": "Point",
        "coordinates": [
          2.3624673,
          48.8804001
        ]
      },
      "id": "node/918317353"
    },
    {
      "type": "Feature",
      "properties": {
        "@id": "node/918317419",
        "amenity": "bar",
        "level": "0",
        "name": "Le Chiquito",
        "opening_hours": "Mo-Fr 07:00-21:00; Sa 09:30-21:00",
        "opening_hours:covid19": "off",
        "tobacco": "yes"
      },
      "geometry": {
        "type": "Point",
        "coordinates": [
          2.3621112,
          48.8807734
        ]
      },
      "id": "node/918317419"
    },
    {
      "type": "Feature",
      "properties": {
        "@id": "node/971476014",
        "amenity": "bar",
        "name": "Le Julyann",
        "survey:date": "2018-05-05"
      },
      "geometry": {
        "type": "Point",
        "coordinates": [
          2.3423076,
          48.8742352
        ]
      },
      "id": "node/971476014"
    },
    {
      "type": "Feature",
      "properties": {
        "@id": "node/971476082",
        "amenity": "bar",
        "name": "Le Flash"
      },
      "geometry": {
        "type": "Point",
        "coordinates": [
          2.3418014,
          48.8752057
        ]
      },
      "id": "node/971476082"
    },
    {
      "type": "Feature",
      "properties": {
        "@id": "node/971476150",
        "amenity": "bar",
        "name": "Au Général la Fayette"
      },
      "geometry": {
        "type": "Point",
        "coordinates": [
          2.3412323,
          48.8750436
        ]
      },
      "id": "node/971476150"
    },
    {
      "type": "Feature",
      "properties": {
        "@id": "node/971476164",
        "amenity": "bar",
        "name": "Le Faubourg"
      },
      "geometry": {
        "type": "Point",
        "coordinates": [
          2.3424987,
          48.8741144
        ]
      },
      "id": "node/971476164"
    },
    {
      "type": "Feature",
      "properties": {
        "@id": "node/985435188",
        "addr:housenumber": "72",
        "addr:postcode": "75018",
        "addr:street": "Rue Lamarck",
        "amenity": "bar",
        "cuisine": "french",
        "name": "Le Refuge",
        "phone": "+33 1 42 62 01 62",
        "source": "cadastre-dgi-fr source : Direction Générale des Impôts - Cadastre. Mise à jour : 2010"
      },
      "geometry": {
        "type": "Point",
        "coordinates": [
          2.3389426,
          48.8900052
        ]
      },
      "id": "node/985435188"
    },
    {
      "type": "Feature",
      "properties": {
        "@id": "node/989431912",
        "amenity": "bar",
        "name": "Le Carillon",
        "phone": "+33 1 42 39 81 88"
      },
      "geometry": {
        "type": "Point",
        "coordinates": [
          2.3678599,
          48.8716183
        ]
      },
      "id": "node/989431912"
    },
    {
      "type": "Feature",
      "properties": {
        "@id": "node/990384086",
        "amenity": "bar",
        "level": "0",
        "name": "Le Louis Blanc",
        "source": "survey 11/2017"
      },
      "geometry": {
        "type": "Point",
        "coordinates": [
          2.3639112,
          48.8817018
        ]
      },
      "id": "node/990384086"
    },
    {
      "type": "Feature",
      "properties": {
        "@id": "node/1003594237",
        "addr:city": "Paris",
        "addr:housenumber": "89",
        "addr:postcode": "75003",
        "addr:street": "Rue Amelot",
        "amenity": "bar",
        "drink:club-mate": "yes",
        "name": "Le Zero Zero"
      },
      "geometry": {
        "type": "Point",
        "coordinates": [
          2.3677993,
          48.8604905
        ]
      },
      "id": "node/1003594237"
    },
    {
      "type": "Feature",
      "properties": {
        "@id": "node/1014690183",
        "amenity": "bar",
        "name": "La Fronde",
        "source": "cadastre-dgi-fr source : Direction Générale des Impôts - Cadastre. Mise à jour : 2010",
        "survey:date": "2018-09-22",
        "toilets:wheelchair": "no",
        "wheelchair": "limited"
      },
      "geometry": {
        "type": "Point",
        "coordinates": [
          2.3560654,
          48.8594585
        ]
      },
      "id": "node/1014690183"
    },
    {
      "type": "Feature",
      "properties": {
        "@id": "node/1023222092",
        "amenity": "bar",
        "name": "Café Belleville"
      },
      "geometry": {
        "type": "Point",
        "coordinates": [
          2.3748362,
          48.8710893
        ]
      },
      "id": "node/1023222092"
    },
    {
      "type": "Feature",
      "properties": {
        "@id": "node/1035787952",
        "amenity": "bar",
        "name": "Oued-Rhiou"
      },
      "geometry": {
        "type": "Point",
        "coordinates": [
          2.3671601,
          48.887207
        ]
      },
      "id": "node/1035787952"
    },
    {
      "type": "Feature",
      "properties": {
        "@id": "node/1094366292",
        "addr:housenumber": "182",
        "addr:postcode": "75003",
        "addr:street": "Rue Saint-Martin",
        "amenity": "bar",
        "internet_access": "no",
        "name": "Le Bar'Ouf",
        "opening_hours": "Tu,We 17:30-01:00, Th-Sa 17:30-02:00",
        "source": "https://fr-fr.facebook.com/BarOuf"
      },
      "geometry": {
        "type": "Point",
        "coordinates": [
          2.3523099,
          48.8626564
        ]
      },
      "id": "node/1094366292"
    },
    {
      "type": "Feature",
      "properties": {
        "@id": "node/1114763120",
        "amenity": "bar",
        "name": "Bistrot Lumière"
      },
      "geometry": {
        "type": "Point",
        "coordinates": [
          2.3797004,
          48.8850887
        ]
      },
      "id": "node/1114763120"
    },
    {
      "type": "Feature",
      "properties": {
        "@id": "node/1164839323",
        "addr:city": "Paris",
        "addr:housenumber": "37",
        "addr:postcode": "75004",
        "addr:street": "Rue Quincampoix",
        "amenity": "bar",
        "cuisine": "french",
        "name": "Hellfest Corner",
        "outdoor_seating": "no",
        "restaurant": "yes",
        "website": "https://www.hellfestcorner.com/",
        "wheelchair": "limited"
      },
      "geometry": {
        "type": "Point",
        "coordinates": [
          2.350326,
          48.8608198
        ]
      },
      "id": "node/1164839323"
    },
    {
      "type": "Feature",
      "properties": {
        "@id": "node/1225461874",
        "amenity": "bar",
        "description:covid19": "Fermé le samedi après-midi",
        "name": "Tabac du Temple",
        "opening_hours:covid19": "restricted",
        "shop": "tobacco"
      },
      "geometry": {
        "type": "Point",
        "coordinates": [
          2.362244,
          48.8670916
        ]
      },
      "id": "node/1225461874"
    },
    {
      "type": "Feature",
      "properties": {
        "@id": "node/1234174563",
        "addr:housenumber": "32",
        "addr:postcode": "75009",
        "addr:street": "Rue de Londres",
        "amenity": "bar",
        "cuisine": "french",
        "name": "Le Semaphore",
        "source": "cadastre-dgi-fr source : Direction Générale des Impôts - Cadastre. Mise à jour : 2011"
      },
      "geometry": {
        "type": "Point",
        "coordinates": [
          2.3278199,
          48.8776389
        ]
      },
      "id": "node/1234174563"
    },
    {
      "type": "Feature",
      "properties": {
        "@id": "node/1234207273",
        "addr:housenumber": "7",
        "addr:street": "Rue Pierre Fontaine",
        "amenity": "bar",
        "name": "Orphée",
        "source": "cadastre-dgi-fr source : Direction Générale des Impôts - Cadastre. Mise à jour : 2011"
      },
      "geometry": {
        "type": "Point",
        "coordinates": [
          2.3345229,
          48.8810281
        ]
      },
      "id": "node/1234207273"
    },
    {
      "type": "Feature",
      "properties": {
        "@id": "node/1234207497",
        "addr:city": "Paris",
        "addr:housenumber": "49",
        "addr:postcode": "75009",
        "addr:street": "Boulevard de Clichy",
        "amenity": "bar",
        "email": "contact@wallstreetpigalle.fr",
        "name": "Wall Street Bar",
        "opening_hours": "Mo-Sa 17:00-02:00; Su 17:00-00:00",
        "phone": "+33 9 86 24 57 77",
        "smoking": "outside",
        "source": "cadastre-dgi-fr source : Direction Générale des Impôts - Cadastre. Mise à jour : 2011",
        "website": "http://wallstreetbar.fr/"
      },
      "geometry": {
        "type": "Point",
        "coordinates": [
          2.3339314,
          48.8831839
        ]
      },
      "id": "node/1234207497"
    },
    {
      "type": "Feature",
      "properties": {
        "@id": "node/1235238111",
        "addr:housenumber": "4",
        "addr:postcode": "75009",
        "addr:street": "Rue Viollet-le-Duc",
        "amenity": "bar",
        "name": "Sister Midnight",
        "source": "cadastre-dgi-fr source : Direction Générale des Impôts - Cadastre. Mise à jour : 2011",
        "website": "https://www.facebook.com/sistermidnightbar/"
      },
      "geometry": {
        "type": "Point",
        "coordinates": [
          2.3407486,
          48.8814639
        ]
      },
      "id": "node/1235238111"
    },
    {
      "type": "Feature",
      "properties": {
        "@id": "node/1236518678",
        "addr:housenumber": "25",
        "addr:street": "Rue de Rochechouart",
        "amenity": "bar",
        "cuisine": "seafood;local;french;deli",
        "name": "Verre et Chope",
        "source": "cadastre-dgi-fr source : Direction Générale des Impôts - Cadastre. Mise à jour : 2011",
        "survey:date": "2018-05-05"
      },
      "geometry": {
        "type": "Point",
        "coordinates": [
          2.3447332,
          48.877868
        ]
      },
      "id": "node/1236518678"
    },
    {
      "type": "Feature",
      "properties": {
        "@id": "node/1236519210",
        "addr:housenumber": "32",
        "addr:postcode": "75009",
        "addr:street": "Rue de Rochechouart",
        "amenity": "bar",
        "name": "Mikkeller Bar",
        "source": "cadastre-dgi-fr source : Direction Générale des Impôts - Cadastre. Mise à jour : 2011"
      },
      "geometry": {
        "type": "Point",
        "coordinates": [
          2.3453009,
          48.8786152
        ]
      },
      "id": "node/1236519210"
    },
    {
      "type": "Feature",
      "properties": {
        "@id": "node/1240426837",
        "amenity": "bar",
        "name": "Le Rouergue"
      },
      "geometry": {
        "type": "Point",
        "coordinates": [
          2.3419355,
          48.8651635
        ]
      },
      "id": "node/1240426837"
    },
    {
      "type": "Feature",
      "properties": {
        "@id": "node/1242439466",
        "addr:city": "Paris",
        "addr:country": "FR",
        "addr:housenumber": "25",
        "addr:postcode": "75009",
        "addr:street": "Rue de Trévise",
        "amenity": "bar",
        "email": "contact9@hypnosebar.com",
        "name": "Hypnose Bar",
        "opening_hours": "Mo-We 18:00-01:00; Th-Sa 18:00-02:00",
        "phone": "+33 9 53 81 92 76",
        "source": "cadastre-dgi-fr source : Direction Générale des Impôts - Cadastre. Mise à jour : 2011",
        "website": "http://www.hypnosebar.com"
      },
      "geometry": {
        "type": "Point",
        "coordinates": [
          2.3452393,
          48.8742323
        ]
      },
      "id": "node/1242439466"
    },
    {
      "type": "Feature",
      "properties": {
        "@id": "node/1243322704",
        "addr:housenumber": "5",
        "addr:street": "Rue de Chaumont",
        "amenity": "bar",
        "name": "La Bicyclette",
        "opening_hours": "Mo-We 12:00-14:30; Th-Fr 12:00-14:30, 18:00-23:00",
        "phone": "+33 1 73 71 05 13"
      },
      "geometry": {
        "type": "Point",
        "coordinates": [
          2.3721944,
          48.8813769
        ]
      },
      "id": "node/1243322704"
    },
    {
      "type": "Feature",
      "properties": {
        "@id": "node/1272453341",
        "addr:housenumber": "22",
        "addr:street": "Rue de Mazagran",
        "amenity": "bar",
        "name": "Le Xème",
        "source": "cadastre-dgi-fr source : Direction Générale des Impôts - Cadastre. Mise à jour : 2011"
      },
      "geometry": {
        "type": "Point",
        "coordinates": [
          2.352256,
          48.8710357
        ]
      },
      "id": "node/1272453341"
    },
    {
      "type": "Feature",
      "properties": {
        "@id": "node/1290869697",
        "amenity": "bar",
        "name": "Le Carrefour",
        "source": "cadastre-dgi-fr source : Direction Générale des Impôts - Cadastre. Mise à jour : 2011"
      },
      "geometry": {
        "type": "Point",
        "coordinates": [
          2.3772848,
          48.8655296
        ]
      },
      "id": "node/1290869697"
    },
    {
      "type": "Feature",
      "properties": {
        "@id": "node/1292143808",
        "addr:housenumber": "8",
        "addr:street": "Rue de Crussol",
        "amenity": "bar",
        "name": "L'entrée des artistes",
        "source": "cadastre-dgi-fr source : Direction Générale des Impôts - Cadastre. Mise à jour : 2011"
      },
      "geometry": {
        "type": "Point",
        "coordinates": [
          2.367484,
          48.8639701
        ]
      },
      "id": "node/1292143808"
    },
    {
      "type": "Feature",
      "properties": {
        "@id": "node/1292271731",
        "addr:city": "Paris",
        "addr:housenumber": "25",
        "addr:postcode": "75011",
        "addr:street": "Rue Moret",
        "amenity": "bar",
        "name": "Ribote"
      },
      "geometry": {
        "type": "Point",
        "coordinates": [
          2.3787673,
          48.8676463
        ]
      },
      "id": "node/1292271731"
    },
    {
      "type": "Feature",
      "properties": {
        "@id": "node/1298883468",
        "addr:housenumber": "52",
        "addr:postcode": "75011",
        "addr:street": "Rue Saint-Sébastien",
        "amenity": "bar",
        "name": "Charlie et sa Bière à Deux Balles",
        "opening_hours": "Mo-Sa 17:00-02:00; Su 16:00-01:00",
        "phone": "+33 6 73 94 43 88",
        "source": "cadastre-dgi-fr source : Direction Générale des Impôts - Cadastre. Mise à jour : 2011"
      },
      "geometry": {
        "type": "Point",
        "coordinates": [
          2.3732857,
          48.862227
        ]
      },
      "id": "node/1298883468"
    },
    {
      "type": "Feature",
      "properties": {
        "@id": "node/1307259214",
        "addr:housenumber": "74",
        "addr:street": "Rue de la Roquette",
        "amenity": "bar",
        "name": "Les Furieux",
        "source": "cadastre-dgi-fr source : Direction Générale des Impôts - Cadastre. Mise à jour : 2011",
        "website": "http://www.lesfurieux.fr/index2.htm"
      },
      "geometry": {
        "type": "Point",
        "coordinates": [
          2.3753418,
          48.8557579
        ]
      },
      "id": "node/1307259214"
    },
    {
      "type": "Feature",
      "properties": {
        "@id": "node/1307270981",
        "addr:housenumber": "28",
        "addr:postcode": "75011",
        "addr:street": "Rue Keller",
        "amenity": "bar",
        "internet_access": "wlan",
        "name": "Bacardi Mojito Lab",
        "opening_hours": "Tu-Th 18:00-02:00; Fr-Sa 18:00-03:00; Su 18:00-01:00",
        "phone": "+33 1 75 77 23 95",
        "source": "cadastre-dgi-fr source : Direction Générale des Impôts - Cadastre. Mise à jour : 2011",
        "website": "https://www.mojitolab.com/"
      },
      "geometry": {
        "type": "Point",
        "coordinates": [
          2.3757046,
          48.855091
        ]
      },
      "id": "node/1307270981"
    },
    {
      "type": "Feature",
      "properties": {
        "@id": "node/1307271035",
        "addr:housenumber": "21",
        "addr:postcode": "75012",
        "addr:street": "Rue Keller",
        "amenity": "bar",
        "name": "Lone Palm",
        "opening_hours": "Tu-Sa 18:00-02:00",
        "phone": "+33 1 48 06 03 95",
        "source": "cadastre-dgi-fr source : Direction Générale des Impôts - Cadastre. Mise à jour : 2011"
      },
      "geometry": {
        "type": "Point",
        "coordinates": [
          2.3755893,
          48.8550046
        ]
      },
      "id": "node/1307271035"
    },
    {
      "type": "Feature",
      "properties": {
        "@id": "node/1326677896",
        "addr:housenumber": "15",
        "addr:postcode": "75018",
        "addr:street": "Rue Joseph de Maistre",
        "alt_name": "Le 20 Heures Vin",
        "amenity": "bar",
        "name": "Le Vingt Heures Vin",
        "phone": "+33 9 54665067"
      },
      "geometry": {
        "type": "Point",
        "coordinates": [
          2.3333605,
          48.886254
        ]
      },
      "id": "node/1326677896"
    },
    {
      "type": "Feature",
      "properties": {
        "@id": "node/1350464575",
        "amenity": "bar",
        "name": "Le Villageois"
      },
      "geometry": {
        "type": "Point",
        "coordinates": [
          2.3816769,
          48.86499
        ]
      },
      "id": "node/1350464575"
    },
    {
      "type": "Feature",
      "properties": {
        "@id": "node/1373984769",
        "amenity": "bar",
        "name": "Le Salon",
        "source": "survey",
        "wheelchair": "limited"
      },
      "geometry": {
        "type": "Point",
        "coordinates": [
          2.3425149,
          48.8704863
        ]
      },
      "id": "node/1373984769"
    },
    {
      "type": "Feature",
      "properties": {
        "@id": "node/1404449817",
        "amenity": "bar",
        "name": "Les Souffleurs"
      },
      "geometry": {
        "type": "Point",
        "coordinates": [
          2.3550993,
          48.857093
        ]
      },
      "id": "node/1404449817"
    },
    {
      "type": "Feature",
      "properties": {
        "@id": "node/1477656356",
        "amenity": "bar",
        "name": "Julo"
      },
      "geometry": {
        "type": "Point",
        "coordinates": [
          2.3697771,
          48.8637107
        ]
      },
      "id": "node/1477656356"
    },
    {
      "type": "Feature",
      "properties": {
        "@id": "node/1482958092",
        "amenity": "bar",
        "name": "Les Domaines de Sophie",
        "source": "survey"
      },
      "geometry": {
        "type": "Point",
        "coordinates": [
          2.3386203,
          48.8750628
        ]
      },
      "id": "node/1482958092"
    },
    {
      "type": "Feature",
      "properties": {
        "@id": "node/1484054970",
        "amenity": "bar",
        "name": "Le Vénitien"
      },
      "geometry": {
        "type": "Point",
        "coordinates": [
          2.335756,
          48.8710599
        ]
      },
      "id": "node/1484054970"
    },
    {
      "type": "Feature",
      "properties": {
        "@id": "node/1486314027",
        "amenity": "bar",
        "name": "Le Petit Bistrot"
      },
      "geometry": {
        "type": "Point",
        "coordinates": [
          2.3467197,
          48.8706525
        ]
      },
      "id": "node/1486314027"
    },
    {
      "type": "Feature",
      "properties": {
        "@id": "node/1488772080",
        "amenity": "bar",
        "cuisine": "coffee_shop",
        "name": "Café des Deux Gares",
        "source": "survey 12/2018"
      },
      "geometry": {
        "type": "Point",
        "coordinates": [
          2.3564644,
          48.8784174
        ]
      },
      "id": "node/1488772080"
    },
    {
      "type": "Feature",
      "properties": {
        "@id": "node/1488772097",
        "amenity": "bar",
        "name": "Le Camélia"
      },
      "geometry": {
        "type": "Point",
        "coordinates": [
          2.3577149,
          48.8796001
        ]
      },
      "id": "node/1488772097"
    },
    {
      "type": "Feature",
      "properties": {
        "@id": "node/1489177443",
        "amenity": "bar",
        "name": "La Rose Rouge",
        "opening_hours": "Mo-Sa 14:00-02:00"
      },
      "geometry": {
        "type": "Point",
        "coordinates": [
          2.3637372,
          48.8811904
        ]
      },
      "id": "node/1489177443"
    },
    {
      "type": "Feature",
      "properties": {
        "@id": "node/1489177454",
        "amenity": "bar",
        "name": "Le Rond Point"
      },
      "geometry": {
        "type": "Point",
        "coordinates": [
          2.3708586,
          48.8827558
        ]
      },
      "id": "node/1489177454"
    },
    {
      "type": "Feature",
      "properties": {
        "@id": "node/1490922325",
        "amenity": "bar",
        "name": "Aux Gorges du Tarn"
      },
      "geometry": {
        "type": "Point",
        "coordinates": [
          2.3349268,
          48.8700724
        ]
      },
      "id": "node/1490922325"
    },
    {
      "type": "Feature",
      "properties": {
        "@id": "node/1490922371",
        "amenity": "bar",
        "name": "Le Cesar"
      },
      "geometry": {
        "type": "Point",
        "coordinates": [
          2.3368573,
          48.8672079
        ]
      },
      "id": "node/1490922371"
    },
    {
      "type": "Feature",
      "properties": {
        "@id": "node/1503093279",
        "amenity": "bar",
        "name": "La Fontaine Molière"
      },
      "geometry": {
        "type": "Point",
        "coordinates": [
          2.3368066,
          48.8658764
        ]
      },
      "id": "node/1503093279"
    },
    {
      "type": "Feature",
      "properties": {
        "@id": "node/1616985541",
        "addr:housenumber": "74",
        "addr:street": "rue des Martyrs",
        "amenity": "bar",
        "name": "La Fourmi",
        "phone": "+33 1 42 64 70 35",
        "smoking": "no"
      },
      "geometry": {
        "type": "Point",
        "coordinates": [
          2.3397496,
          48.8823251
        ]
      },
      "id": "node/1616985541"
    },
    {
      "type": "Feature",
      "properties": {
        "@id": "node/1618002590",
        "amenity": "bar",
        "name": "La Francaise"
      },
      "geometry": {
        "type": "Point",
        "coordinates": [
          2.3561752,
          48.887457
        ]
      },
      "id": "node/1618002590"
    },
    {
      "type": "Feature",
      "properties": {
        "@id": "node/1667577648",
        "amenity": "bar",
        "name": "Le Simplon",
        "outdoor_seating": "yes"
      },
      "geometry": {
        "type": "Point",
        "coordinates": [
          2.3475036,
          48.8938461
        ]
      },
      "id": "node/1667577648"
    },
    {
      "type": "Feature",
      "properties": {
        "@id": "node/1668675883",
        "addr:postcode": "75018",
        "amenity": "bar",
        "name": "Le Reinitas"
      },
      "geometry": {
        "type": "Point",
        "coordinates": [
          2.3427038,
          48.8935069
        ]
      },
      "id": "node/1668675883"
    },
    {
      "type": "Feature",
      "properties": {
        "@id": "node/1668711668",
        "addr:city": "Paris",
        "addr:housenumber": "3",
        "addr:postcode": "75018",
        "addr:street": "Rue Letort",
        "amenity": "bar",
        "name": "Dionis"
      },
      "geometry": {
        "type": "Point",
        "coordinates": [
          2.342913,
          48.893776
        ]
      },
      "id": "node/1668711668"
    },
    {
      "type": "Feature",
      "properties": {
        "@id": "node/1668766274",
        "amenity": "bar",
        "created_by": "iLOE 1.9",
        "name": "Le Flash",
        "opening_hours:covid19": "open",
        "shop": "tobacco"
      },
      "geometry": {
        "type": "Point",
        "coordinates": [
          2.347729,
          48.89361
        ]
      },
      "id": "node/1668766274"
    },
    {
      "type": "Feature",
      "properties": {
        "@id": "node/1668852308",
        "addr:postcode": "75018",
        "amenity": "bar",
        "name": "Café Poteau"
      },
      "geometry": {
        "type": "Point",
        "coordinates": [
          2.343523,
          48.89304
        ]
      },
      "id": "node/1668852308"
    },
    {
      "type": "Feature",
      "properties": {
        "@id": "node/1670102655",
        "amenity": "bar",
        "name": "Le Cadran du faubourg"
      },
      "geometry": {
        "type": "Point",
        "coordinates": [
          2.3544917,
          48.87322
        ]
      },
      "id": "node/1670102655"
    },
    {
      "type": "Feature",
      "properties": {
        "@id": "node/1670106050",
        "amenity": "bar",
        "name": "Le Réveil du 10e"
      },
      "geometry": {
        "type": "Point",
        "coordinates": [
          2.358021,
          48.8712159
        ]
      },
      "id": "node/1670106050"
    },
    {
      "type": "Feature",
      "properties": {
        "@id": "node/1670117368",
        "amenity": "bar",
        "name": "Le Navy",
        "tobacco": "yes"
      },
      "geometry": {
        "type": "Point",
        "coordinates": [
          2.360048,
          48.870326
        ]
      },
      "id": "node/1670117368"
    },
    {
      "type": "Feature",
      "properties": {
        "@id": "node/1670126985",
        "amenity": "bar",
        "name": "Le Coq"
      },
      "geometry": {
        "type": "Point",
        "coordinates": [
          2.3611035,
          48.8697612
        ]
      },
      "id": "node/1670126985"
    },
    {
      "type": "Feature",
      "properties": {
        "@id": "node/1670131209",
        "amenity": "bar",
        "name": "Le Côte d'Azur"
      },
      "geometry": {
        "type": "Point",
        "coordinates": [
          2.361643,
          48.869473
        ]
      },
      "id": "node/1670131209"
    },
    {
      "type": "Feature",
      "properties": {
        "@id": "node/1670305377",
        "addr:city": "Paris",
        "addr:housenumber": "39",
        "addr:postcode": "75010",
        "addr:street": "Rue de Lancry",
        "amenity": "bar",
        "name": "Au Métro",
        "opening_hours": "Mo-Su 07:00-02:00",
        "outdoor_seating": "yes",
        "phone": "+33 1 42 03 61 65",
        "website": "https://www.facebook.com/RestauMetro/"
      },
      "geometry": {
        "type": "Point",
        "coordinates": [
          2.361396,
          48.870973
        ]
      },
      "id": "node/1670305377"
    },
    {
      "type": "Feature",
      "properties": {
        "@id": "node/1670347985",
        "amenity": "bar",
        "created_by": "iLOE 1.9",
        "name": "L'Ariel",
        "opening_hours:covid19": "off",
        "tobacco": "yes"
      },
      "geometry": {
        "type": "Point",
        "coordinates": [
          2.362032,
          48.871568
        ]
      },
      "id": "node/1670347985"
    },
    {
      "type": "Feature",
      "properties": {
        "@id": "node/1670389118",
        "addr:street": "Rue de Lancry",
        "amenity": "bar",
        "name": "Le Cinquante",
        "phone": "+33 1 42 02 36 83"
      },
      "geometry": {
        "type": "Point",
        "coordinates": [
          2.3626809,
          48.871916
        ]
      },
      "id": "node/1670389118"
    },
    {
      "type": "Feature",
      "properties": {
        "@id": "node/1670401972",
        "amenity": "bar",
        "brewery": "Affligem",
        "internet_access": "no",
        "level": "0",
        "name": "La Patache",
        "source": "survey 12/2018"
      },
      "geometry": {
        "type": "Point",
        "coordinates": [
          2.363565,
          48.872686
        ]
      },
      "id": "node/1670401972"
    },
    {
      "type": "Feature",
      "properties": {
        "@id": "node/1674855139",
        "addr:city": "Paris",
        "addr:housenumber": "79",
        "addr:postcode": "75018",
        "addr:street": "Boulevard Barbès",
        "amenity": "bar",
        "name": "Le Rallye",
        "opening_hours:covid19": "off",
        "source": "cadastre-dgi-fr source : Direction Générale des Impôts - Cadastre. Mise à jour : 2013",
        "tobacco": "yes"
      },
      "geometry": {
        "type": "Point",
        "coordinates": [
          2.3494118,
          48.8914347
        ]
      },
      "id": "node/1674855139"
    },
    {
      "type": "Feature",
      "properties": {
        "@id": "node/1674935278",
        "addr:postcode": "75018",
        "amenity": "bar",
        "name": "Bistrot le Sainte-Isaure"
      },
      "geometry": {
        "type": "Point",
        "coordinates": [
          2.344049,
          48.892985
        ]
      },
      "id": "node/1674935278"
    },
    {
      "type": "Feature",
      "properties": {
        "@id": "node/1679463071",
        "amenity": "bar",
        "created_by": "iLOE 1.9",
        "name": "Chez Gaston"
      },
      "geometry": {
        "type": "Point",
        "coordinates": [
          2.351542,
          48.891422
        ]
      },
      "id": "node/1679463071"
    },
    {
      "type": "Feature",
      "properties": {
        "@id": "node/1679463986",
        "amenity": "bar",
        "created_by": "iLOE 1.9",
        "name": "Le Provencial"
      },
      "geometry": {
        "type": "Point",
        "coordinates": [
          2.351629,
          48.891594
        ]
      },
      "id": "node/1679463986"
    },
    {
      "type": "Feature",
      "properties": {
        "@id": "node/1679467252",
        "amenity": "bar",
        "name": "L'Adriatique",
        "newsagent": "yes",
        "source": "Obs. pers.",
        "tobacco": "yes"
      },
      "geometry": {
        "type": "Point",
        "coordinates": [
          2.351729,
          48.891751
        ]
      },
      "id": "node/1679467252"
    },
    {
      "type": "Feature",
      "properties": {
        "@id": "node/1679470399",
        "amenity": "bar",
        "created_by": "iLOE 1.9",
        "name": "Aux Rendez-Vous des Amis"
      },
      "geometry": {
        "type": "Point",
        "coordinates": [
          2.351846,
          48.891951
        ]
      },
      "id": "node/1679470399"
    },
    {
      "type": "Feature",
      "properties": {
        "@id": "node/1685494665",
        "addr:city": "Paris",
        "addr:housenumber": "4",
        "addr:postcode": "75002",
        "addr:street": "Rue Daunou",
        "amenity": "bar",
        "brewery": "affligem;heineken;Edelweiss;Desperados",
        "happy_hours": "Mo-Sa 18:00-21:30",
        "internet_access": "no",
        "name": "Le Biscornu Opéra",
        "opening_hours": "Mo-Sa 18:00-05:00",
        "phone": "+33971384275",
        "website": "https://lebiscornuopera.fr/"
      },
      "geometry": {
        "type": "Point",
        "coordinates": [
          2.3323713,
          48.8693141
        ]
      },
      "id": "node/1685494665"
    },
    {
      "type": "Feature",
      "properties": {
        "@id": "node/1691558834",
        "amenity": "bar",
        "name": "La Table de l'Ébéniste"
      },
      "geometry": {
        "type": "Point",
        "coordinates": [
          2.3175438,
          48.8862067
        ]
      },
      "id": "node/1691558834"
    },
    {
      "type": "Feature",
      "properties": {
        "@id": "node/1692097042",
        "amenity": "bar",
        "name": "Le Duplex",
        "opening_hours": "Mo-Th 20:00-02:00; Fr-Sa 20:00-04:00"
      },
      "geometry": {
        "type": "Point",
        "coordinates": [
          2.3549738,
          48.862468
        ]
      },
      "id": "node/1692097042"
    },
    {
      "type": "Feature",
      "properties": {
        "@id": "node/1702449830",
        "addr:city": "Paris",
        "addr:housenumber": "43",
        "addr:postcode": "75018",
        "addr:street": "Rue Doudeauville",
        "amenity": "bar",
        "name": "L’Omadys"
      },
      "geometry": {
        "type": "Point",
        "coordinates": [
          2.3534523,
          48.8883787
        ]
      },
      "id": "node/1702449830"
    },
    {
      "type": "Feature",
      "properties": {
        "@id": "node/1754603251",
        "amenity": "bar",
        "cuisine": "french",
        "name": "Le Sainte-Marthe",
        "opening_hours": "Mo-Fr 12:00-02:00; Su 10:00-02:00; Sa 17:00-02:00",
        "source": "survey 2017"
      },
      "geometry": {
        "type": "Point",
        "coordinates": [
          2.3725892,
          48.873983
        ]
      },
      "id": "node/1754603251"
    },
    {
      "type": "Feature",
      "properties": {
        "@id": "node/1789894287",
        "amenity": "bar",
        "name": "Le Petit Centre"
      },
      "geometry": {
        "type": "Point",
        "coordinates": [
          2.3666774,
          48.8660229
        ]
      },
      "id": "node/1789894287"
    },
    {
      "type": "Feature",
      "properties": {
        "@id": "node/1789944746",
        "addr:housenumber": "49",
        "addr:postcode": "75011",
        "addr:street": "Rue Jean-Pierre Timbaud",
        "amenity": "bar",
        "name": "UFO Bar"
      },
      "geometry": {
        "type": "Point",
        "coordinates": [
          2.3739208,
          48.8668369
        ]
      },
      "id": "node/1789944746"
    },
    {
      "type": "Feature",
      "properties": {
        "@id": "node/1789946258",
        "addr:city": "Paris",
        "addr:housenumber": "64",
        "addr:postcode": "75011",
        "addr:street": "Rue Jean-Pierre Timbaud",
        "amenity": "bar",
        "happy_hours": "We-Sa 19:00-21:00",
        "name": "L'Alimentation Générale",
        "opening_hours": "We-Th 19:00-02:00; Fr-Sa 19:00-05:00",
        "phone": "+33 9 81 86 42 50",
        "website": "http://www.alimentation-generale.net/"
      },
      "geometry": {
        "type": "Point",
        "coordinates": [
          2.37435,
          48.8667946
        ]
      },
      "id": "node/1789946258"
    },
    {
      "type": "Feature",
      "properties": {
        "@id": "node/1812659246",
        "amenity": "bar",
        "name": "La Panthère Ose",
        "opening_hours": "Mo-Sa 18:00-02:00, Mo-Fr 11:00-15:00",
        "survey:date": "2018-05-05"
      },
      "geometry": {
        "type": "Point",
        "coordinates": [
          2.3458902,
          48.8793707
        ]
      },
      "id": "node/1812659246"
    },
    {
      "type": "Feature",
      "properties": {
        "@id": "node/1827138891",
        "amenity": "bar",
        "name": "Le Privilège",
        "opening_hours": "Mo-Su 15:00-02:00",
        "phone": "+33 9 81 81 60 28"
      },
      "geometry": {
        "type": "Point",
        "coordinates": [
          2.3407712,
          48.8766343
        ]
      },
      "id": "node/1827138891"
    },
    {
      "type": "Feature",
      "properties": {
        "@id": "node/1830661957",
        "addr:city": "Paris",
        "addr:housenumber": "6",
        "addr:postcode": "75011",
        "addr:street": "Avenue Jean Aicard",
        "amenity": "bar",
        "brewery": "deuchars",
        "name": "La fine Mousse",
        "website": "http://lafinemousse.fr"
      },
      "geometry": {
        "type": "Point",
        "coordinates": [
          2.3817815,
          48.8648511
        ]
      },
      "id": "node/1830661957"
    },
    {
      "type": "Feature",
      "properties": {
        "@id": "node/1861767365",
        "amenity": "bar",
        "name": "Open Café",
        "name:en": "Jesus Paradis",
        "name:fr": "Jesus Paradis",
        "wifi": "no"
      },
      "geometry": {
        "type": "Point",
        "coordinates": [
          2.3576608,
          48.8709579
        ]
      },
      "id": "node/1861767365"
    },
    {
      "type": "Feature",
      "properties": {
        "@id": "node/1867384174",
        "addr:housenumber": "17",
        "addr:postcode": "75018",
        "addr:street": "Rue Custine",
        "amenity": "bar",
        "cuisine": "breakfast;french;coffee_shop",
        "name": "L'Instant Bar"
      },
      "geometry": {
        "type": "Point",
        "coordinates": [
          2.3480632,
          48.8881586
        ]
      },
      "id": "node/1867384174"
    },
    {
      "type": "Feature",
      "properties": {
        "@id": "node/1867397539",
        "addr:housenumber": "102",
        "addr:postcode": "75018",
        "addr:street": "Rue Doudeauville",
        "amenity": "bar",
        "name": "La Carotte Bleue"
      },
      "geometry": {
        "type": "Point",
        "coordinates": [
          2.3485324,
          48.8884653
        ]
      },
      "id": "node/1867397539"
    },
    {
      "type": "Feature",
      "properties": {
        "@id": "node/1867428325",
        "addr:housenumber": "40",
        "addr:street": "Rue de Clignancourt",
        "amenity": "bar",
        "internet_access": "yes",
        "name": "La Chope du Château Rouge",
        "outdoor_seating": "yes"
      },
      "geometry": {
        "type": "Point",
        "coordinates": [
          2.3478228,
          48.8869647
        ]
      },
      "id": "node/1867428325"
    },
    {
      "type": "Feature",
      "properties": {
        "@id": "node/1869060190",
        "addr:city": "Paris",
        "addr:housenumber": "11",
        "addr:postcode": "75018",
        "addr:street": "Rue Lapeyrère",
        "amenity": "bar",
        "brewery": "Chouffe",
        "internet_access": "no",
        "name": "L'Alibi",
        "opening_hours": "Mo-Sa 17:30-01:15",
        "phone": "+33 1 42 52 23 50"
      },
      "geometry": {
        "type": "Point",
        "coordinates": [
          2.3428666,
          48.8920227
        ]
      },
      "id": "node/1869060190"
    },
    {
      "type": "Feature",
      "properties": {
        "@id": "node/1869850882",
        "addr:postcode": "75018",
        "amenity": "bar",
        "name": "No Problemo",
        "opening_hours": "Mo-Sa 10:00-02:00"
      },
      "geometry": {
        "type": "Point",
        "coordinates": [
          2.3451141,
          48.8857524
        ]
      },
      "id": "node/1869850882"
    },
    {
      "type": "Feature",
      "properties": {
        "@id": "node/1877310786",
        "addr:city": "Paris",
        "addr:housenumber": "60",
        "addr:postcode": "75018",
        "addr:street": "Rue Custine",
        "amenity": "bar",
        "brewery": "yes",
        "name": "All Good Things",
        "opening_hours": "Tu-We 08:30-20:00; Th-Fr 08:30-21:30; Sa 9:30-21:30; Su 9:30-18:30; Mo off",
        "outdoor_seating": "yes",
        "website": "https://www.allgoodthingsparis.com/"
      },
      "geometry": {
        "type": "Point",
        "coordinates": [
          2.3434458,
          48.8897516
        ]
      },
      "id": "node/1877310786"
    },
    {
      "type": "Feature",
      "properties": {
        "@id": "node/1886081456",
        "amenity": "bar",
        "internet_access": "no",
        "name": "Rock 'n Roll Circus",
        "smoking": "no"
      },
      "geometry": {
        "type": "Point",
        "coordinates": [
          2.3372823,
          48.8827601
        ]
      },
      "id": "node/1886081456"
    },
    {
      "type": "Feature",
      "properties": {
        "@id": "node/1896376768",
        "addr:postcode": "75018",
        "amenity": "bar",
        "name": "Le Vizir"
      },
      "geometry": {
        "type": "Point",
        "coordinates": [
          2.3371262,
          48.8933968
        ]
      },
      "id": "node/1896376768"
    },
    {
      "type": "Feature",
      "properties": {
        "@id": "node/1909254294",
        "amenity": "bar",
        "name": "Bar de l'Espérance"
      },
      "geometry": {
        "type": "Point",
        "coordinates": [
          2.3293592,
          48.8935624
        ]
      },
      "id": "node/1909254294"
    },
    {
      "type": "Feature",
      "properties": {
        "@id": "node/1927627184",
        "addr:housenumber": "134",
        "addr:postcode": "75018",
        "addr:street": "Rue Marcadet",
        "amenity": "bar",
        "internet_access": "wlan",
        "internet_access:fee": "no",
        "name": "La Cave Café",
        "website": "http://lacavecafe.fr/"
      },
      "geometry": {
        "type": "Point",
        "coordinates": [
          2.3395278,
          48.8912786
        ]
      },
      "id": "node/1927627184"
    },
    {
      "type": "Feature",
      "properties": {
        "@id": "node/1931490819",
        "amenity": "bar",
        "name": "Le Florence",
        "note:fr": "Bar, restaurant; Salle au Sous Pot",
        "source": "survey"
      },
      "geometry": {
        "type": "Point",
        "coordinates": [
          2.3087651,
          48.8748709
        ]
      },
      "id": "node/1931490819"
    },
    {
      "type": "Feature",
      "properties": {
        "@id": "node/2000813093",
        "amenity": "bar",
        "name": "Bar du Métro",
        "note:fr": "Café / bar",
        "source": "wikimedia"
      },
      "geometry": {
        "type": "Point",
        "coordinates": [
          2.3741798,
          48.8882293
        ]
      },
      "id": "node/2000813093"
    },
    {
      "type": "Feature",
      "properties": {
        "@id": "node/2003145820",
        "addr:city": "Paris",
        "addr:housenumber": "27",
        "addr:postcode": "75004",
        "addr:street": "Rue Quincampoix",
        "amenity": "bar",
        "happy_hours": "17:30-21:00",
        "name": "Le Komptoir",
        "opening_hours": "Su-Mo 16:00-00:00; Tu-Sa 17:00-02:00",
        "phone": "+33142777535",
        "website": "http://www.lekomptoir.fr",
        "wheelchair": "yes",
        "wikidata": "Q22921528"
      },
      "geometry": {
        "type": "Point",
        "coordinates": [
          2.3500266,
          48.8601051
        ]
      },
      "id": "node/2003145820"
    },
    {
      "type": "Feature",
      "properties": {
        "@id": "node/2018171323",
        "amenity": "bar",
        "name": "Le Rochebrune"
      },
      "geometry": {
        "type": "Point",
        "coordinates": [
          2.378459,
          48.8607952
        ]
      },
      "id": "node/2018171323"
    },
    {
      "type": "Feature",
      "properties": {
        "@id": "node/2038629581",
        "amenity": "bar",
        "atm": "no",
        "food": "no",
        "internet_access": "no",
        "name": "La Cantine de la Cigale",
        "outdoor_seating": "yes",
        "smoking": "outside",
        "survey:date": "2017-07-04"
      },
      "geometry": {
        "type": "Point",
        "coordinates": [
          2.3399369,
          48.8822854
        ]
      },
      "id": "node/2038629581"
    },
    {
      "type": "Feature",
      "properties": {
        "@id": "node/2074923980",
        "amenity": "bar",
        "name": "Le Saint-Malo"
      },
      "geometry": {
        "type": "Point",
        "coordinates": [
          2.3721513,
          48.8815725
        ]
      },
      "id": "node/2074923980"
    },
    {
      "type": "Feature",
      "properties": {
        "@id": "node/2087542131",
        "addr:postcode": "75018",
        "amenity": "bar",
        "food": "no",
        "name": "L'Absurde Imposture",
        "outdoor_seating": "no",
        "smoking": "outside"
      },
      "geometry": {
        "type": "Point",
        "coordinates": [
          2.3460516,
          48.8909931
        ]
      },
      "id": "node/2087542131"
    },
    {
      "type": "Feature",
      "properties": {
        "@id": "node/2103216539",
        "amenity": "bar",
        "name": "La Comete",
        "note:fr": "Bar Resto",
        "source": "survey"
      },
      "geometry": {
        "type": "Point",
        "coordinates": [
          2.3429491,
          48.8728753
        ]
      },
      "id": "node/2103216539"
    },
    {
      "type": "Feature",
      "properties": {
        "@id": "node/2116553868",
        "amenity": "bar",
        "name": "Art & du Temps",
        "survey:date": "2017-07-03",
        "wheelchair": "limited"
      },
      "geometry": {
        "type": "Point",
        "coordinates": [
          2.3185158,
          48.8913333
        ]
      },
      "id": "node/2116553868"
    },
    {
      "type": "Feature",
      "properties": {
        "@id": "node/2125571208",
        "amenity": "bar",
        "name": "Le Longchamp",
        "source": "survey"
      },
      "geometry": {
        "type": "Point",
        "coordinates": [
          2.3430496,
          48.8720808
        ]
      },
      "id": "node/2125571208"
    },
    {
      "type": "Feature",
      "properties": {
        "@id": "node/2157952434",
        "addr:city": "Paris",
        "addr:housenumber": "41 bis",
        "addr:postcode": "75019",
        "addr:street": "Quai de la Loire",
        "amenity": "bar",
        "brewery": "various",
        "cuisine": "burger",
        "name": "Paname Brewing Company",
        "opening_hours": "Mo-Su 11:00-02:00",
        "outdoor_seating": "yes",
        "phone": "+33 1 40 36 43 55",
        "source": "survey 2013",
        "website": "http://www.panamebrewingcompany.com",
        "wheelchair": "yes",
        "wheelchair:description": "Biergarten ebenerdig - Gaststätte über einen Rollstuhllift erreichbar."
      },
      "geometry": {
        "type": "Point",
        "coordinates": [
          2.3787631,
          48.8878312
        ]
      },
      "id": "node/2157952434"
    },
    {
      "type": "Feature",
      "properties": {
        "@id": "node/2164023034",
        "amenity": "bar",
        "name": "Floquifil",
        "note:fr": "Cave à vin- table",
        "source": "survey"
      },
      "geometry": {
        "type": "Point",
        "coordinates": [
          2.3434334,
          48.8730582
        ]
      },
      "id": "node/2164023034"
    },
    {
      "type": "Feature",
      "properties": {
        "@id": "node/2165038781",
        "amenity": "bar",
        "name": "Woozy"
      },
      "geometry": {
        "type": "Point",
        "coordinates": [
          2.3429128,
          48.8613184
        ]
      },
      "id": "node/2165038781"
    },
    {
      "type": "Feature",
      "properties": {
        "@id": "node/2194256993",
        "amenity": "bar",
        "name": "Le Derby",
        "note:fr": "Café, Tabac, Brasserie, PMU",
        "source": "survey"
      },
      "geometry": {
        "type": "Point",
        "coordinates": [
          2.354911,
          48.8765118
        ]
      },
      "id": "node/2194256993"
    },
    {
      "type": "Feature",
      "properties": {
        "@id": "node/2244578060",
        "amenity": "bar",
        "name": "N'Importe Quoi",
        "source": "+33 1 40 26 29 71",
        "website": "http://www.nimportequoi.fr/"
      },
      "geometry": {
        "type": "Point",
        "coordinates": [
          2.3438855,
          48.8607815
        ]
      },
      "id": "node/2244578060"
    },
    {
      "type": "Feature",
      "properties": {
        "@id": "node/2283655494",
        "addr:city": "Paris",
        "addr:housenumber": "6-8",
        "addr:postcode": "75019",
        "addr:street": "Place de la Bataille de Stalingrad",
        "amenity": "bar",
        "name": "La Rotonde",
        "opening_hours": "Mo-Su 08:00-02:00",
        "phone": "+33 1 80483340",
        "website": "http://www.larotonde.com/"
      },
      "geometry": {
        "type": "Point",
        "coordinates": [
          2.3696037,
          48.8835862
        ]
      },
      "id": "node/2283655494"
    },
    {
      "type": "Feature",
      "properties": {
        "@id": "node/2305979353",
        "amenity": "bar",
        "name": "Le Cavern - bar, concert"
      },
      "geometry": {
        "type": "Point",
        "coordinates": [
          2.3398837,
          48.8551489
        ]
      },
      "id": "node/2305979353"
    },
    {
      "type": "Feature",
      "properties": {
        "@id": "node/2325915038",
        "amenity": "bar",
        "name": "Tout va Mieux"
      },
      "geometry": {
        "type": "Point",
        "coordinates": [
          2.3650734,
          48.8845687
        ]
      },
      "id": "node/2325915038"
    },
    {
      "type": "Feature",
      "properties": {
        "@id": "node/2329096678",
        "amenity": "bar",
        "name": "Le Libre Échange"
      },
      "geometry": {
        "type": "Point",
        "coordinates": [
          2.3201855,
          48.8904042
        ]
      },
      "id": "node/2329096678"
    },
    {
      "type": "Feature",
      "properties": {
        "@id": "node/2345324859",
        "amenity": "bar",
        "name": "La Grappe d'Or"
      },
      "geometry": {
        "type": "Point",
        "coordinates": [
          2.3492982,
          48.891713
        ]
      },
      "id": "node/2345324859"
    },
    {
      "type": "Feature",
      "properties": {
        "@id": "node/2367321705",
        "addr:city": "Paris",
        "addr:housenumber": "105",
        "addr:postcode": "75011",
        "addr:street": "Rue Amelot",
        "amenity": "bar",
        "brewery": "Smithwick's;Guinness",
        "brewery:note": "Petrol Custom IPA",
        "internet_access": "no",
        "name": "Pop In",
        "opening_hours": "Mo-Su  18:30-01:30",
        "phone": "+331 48 05 56 11",
        "website": "http://popin.fr/"
      },
      "geometry": {
        "type": "Point",
        "coordinates": [
          2.3675537,
          48.8614116
        ]
      },
      "id": "node/2367321705"
    },
    {
      "type": "Feature",
      "properties": {
        "@id": "node/2369244236",
        "amenity": "bar",
        "name": "The B58"
      },
      "geometry": {
        "type": "Point",
        "coordinates": [
          2.342726,
          48.8741216
        ]
      },
      "id": "node/2369244236"
    },
    {
      "type": "Feature",
      "properties": {
        "@id": "node/2383363290",
        "addr:housenumber": "37",
        "addr:street": "Rue Saint-Sauveur",
        "amenity": "bar",
        "name": "Experimental Cocktail Club",
        "phone": "+33 1 45 08 88 09",
        "website": "http://www.experimentalcocktailclub.com",
        "wheelchair": "no"
      },
      "geometry": {
        "type": "Point",
        "coordinates": [
          2.3482308,
          48.8660721
        ]
      },
      "id": "node/2383363290"
    },
    {
      "type": "Feature",
      "properties": {
        "@id": "node/2386674838",
        "amenity": "bar",
        "internet_access": "no",
        "name": "Le Mauri7",
        "opening_hours": "Mo-Sa 08:00-02:00",
        "website": "http://www.lemauri7.com/"
      },
      "geometry": {
        "type": "Point",
        "coordinates": [
          2.3537539,
          48.8715766
        ]
      },
      "id": "node/2386674838"
    },
    {
      "type": "Feature",
      "properties": {
        "@id": "node/2387374853",
        "addr:housenumber": "192",
        "addr:street": "Rue Saint-Maur",
        "amenity": "bar",
        "cuisine": "arab;breakfast;coffee_shop;diner;french;mediterranean;moroccan;sandwich;tapas;burger",
        "internet_access": "wlan",
        "name": "Jane Café",
        "name:en": "Jane Cafe",
        "opening_hours": "24/7",
        "phone": "+33983737710",
        "source": "survey 2013",
        "wheelchair": "no"
      },
      "geometry": {
        "type": "Point",
        "coordinates": [
          2.3717657,
          48.871815
        ]
      },
      "id": "node/2387374853"
    },
    {
      "type": "Feature",
      "properties": {
        "@id": "node/2387389298",
        "amenity": "bar",
        "name": "Le Dude",
        "phone": "+33 9 73 54 27 14",
        "source": "survey 2014",
        "website": "http://www.ledude.fr"
      },
      "geometry": {
        "type": "Point",
        "coordinates": [
          2.3707413,
          48.873397
        ]
      },
      "id": "node/2387389298"
    },
    {
      "type": "Feature",
      "properties": {
        "@id": "node/2387399043",
        "amenity": "bar",
        "name": "San Luis bar",
        "source": "survey 2013",
        "wheelchair": "yes"
      },
      "geometry": {
        "type": "Point",
        "coordinates": [
          2.3703282,
          48.8733502
        ]
      },
      "id": "node/2387399043"
    },
    {
      "type": "Feature",
      "properties": {
        "@id": "node/2392409656",
        "amenity": "bar",
        "name": "Le Bistrot de la Gaité",
        "name:ru": "Настолки",
        "wheelchair": "yes"
      },
      "geometry": {
        "type": "Point",
        "coordinates": [
          2.3533605,
          48.866841
        ]
      },
      "id": "node/2392409656"
    },
    {
      "type": "Feature",
      "properties": {
        "@id": "node/2444236544",
        "amenity": "bar",
        "name": "L'Étincelle",
        "smoking": "no",
        "toilets:wheelchair": "no",
        "wheelchair": "limited"
      },
      "geometry": {
        "type": "Point",
        "coordinates": [
          2.367936,
          48.8608887
        ]
      },
      "id": "node/2444236544"
    },
    {
      "type": "Feature",
      "properties": {
        "@id": "node/2460347252",
        "amenity": "bar",
        "brewery": "Augustiner",
        "name": "Rush bar",
        "toilets:wheelchair": "no",
        "wheelchair": "limited",
        "wheelchair:description": "Toilettes au sous-sol"
      },
      "geometry": {
        "type": "Point",
        "coordinates": [
          2.3701752,
          48.8613268
        ]
      },
      "id": "node/2460347252"
    },
    {
      "type": "Feature",
      "properties": {
        "@id": "node/2460347253",
        "amenity": "bar",
        "description": "Prépare aussi des couscous à emporter",
        "name": "Le Splendid Bar"
      },
      "geometry": {
        "type": "Point",
        "coordinates": [
          2.3698793,
          48.8613847
        ]
      },
      "id": "node/2460347253"
    },
    {
      "type": "Feature",
      "properties": {
        "@id": "node/2477686045",
        "amenity": "bar",
        "name": "Habanos",
        "wheelchair": "limited"
      },
      "geometry": {
        "type": "Point",
        "coordinates": [
          2.3713287,
          48.8569457
        ]
      },
      "id": "node/2477686045"
    },
    {
      "type": "Feature",
      "properties": {
        "@id": "node/2478201181",
        "amenity": "bar",
        "level": "0",
        "name": "District",
        "old_name": "DOOD",
        "outdoor_seating": "yes",
        "source": "survey 12/2017"
      },
      "geometry": {
        "type": "Point",
        "coordinates": [
          2.3445084,
          48.8665444
        ]
      },
      "id": "node/2478201181"
    },
    {
      "type": "Feature",
      "properties": {
        "@id": "node/2478201207",
        "amenity": "bar",
        "level": "0",
        "name": "Le Cœur Fou",
        "outdoor_seating": "yes",
        "source": "survey 11/2017",
        "wheelchair": "no"
      },
      "geometry": {
        "type": "Point",
        "coordinates": [
          2.3444593,
          48.8659512
        ]
      },
      "id": "node/2478201207"
    },
    {
      "type": "Feature",
      "properties": {
        "@id": "node/2478201267",
        "amenity": "bar",
        "name": "Vanita Café",
        "outdoor_seating": "yes",
        "source": "survey 12/2017",
        "tobbaco": "yes"
      },
      "geometry": {
        "type": "Point",
        "coordinates": [
          2.3448686,
          48.8657249
        ]
      },
      "id": "node/2478201267"
    },
    {
      "type": "Feature",
      "properties": {
        "@id": "node/2519949100",
        "addr:city": "Paris",
        "addr:country": "FR",
        "addr:postcode": "75010",
        "addr:street": "Rue de l'Échiquier",
        "amenity": "bar",
        "brewery": "Brooklyn Lager;Kronenbourg Tigre Bock",
        "name": "La Mécanique des Fluides"
      },
      "geometry": {
        "type": "Point",
        "coordinates": [
          2.3521452,
          48.871128
        ]
      },
      "id": "node/2519949100"
    },
    {
      "type": "Feature",
      "properties": {
        "@id": "node/2523989143",
        "addr:city": "Paris",
        "addr:housenumber": "167",
        "addr:postcode": "75010",
        "addr:street": "Quai de Valmy",
        "amenity": "bar",
        "name": "Bizz'art",
        "source": "survey"
      },
      "geometry": {
        "type": "Point",
        "coordinates": [
          2.3664378,
          48.8790751
        ]
      },
      "id": "node/2523989143"
    },
    {
      "type": "Feature",
      "properties": {
        "@id": "node/2536393039",
        "amenity": "bar",
        "name": "O'MoKa",
        "website": "https://omokabar.eatbu.com"
      },
      "geometry": {
        "type": "Point",
        "coordinates": [
          2.3592349,
          48.8936524
        ]
      },
      "id": "node/2536393039"
    },
    {
      "type": "Feature",
      "properties": {
        "@id": "node/2562735593",
        "addr:city": "Paris",
        "addr:housenumber": "8",
        "addr:postcode": "75002",
        "addr:street": "Rue Bachaumont",
        "amenity": "bar",
        "level": "0",
        "name": "Les Écuries",
        "opening_hours": "Mo-Su 18:00-01:00",
        "phone": "+33 1 40 26 80 06",
        "source": "survey 11/2017",
        "website": "http://lesecuries-bar.com/"
      },
      "geometry": {
        "type": "Point",
        "coordinates": [
          2.3460591,
          48.8660625
        ]
      },
      "id": "node/2562735593"
    },
    {
      "type": "Feature",
      "properties": {
        "@id": "node/2591405226",
        "addr:city": "Paris",
        "addr:housenumber": "18",
        "addr:postcode": "75019",
        "addr:street": "Rue Riquet",
        "amenity": "bar",
        "name": "Bar Le Riquet"
      },
      "geometry": {
        "type": "Point",
        "coordinates": [
          2.3744745,
          48.8883957
        ]
      },
      "id": "node/2591405226"
    },
    {
      "type": "Feature",
      "properties": {
        "@id": "node/2624677962",
        "amenity": "bar",
        "name": "Le Vintimille"
      },
      "geometry": {
        "type": "Point",
        "coordinates": [
          2.330333,
          48.8831199
        ]
      },
      "id": "node/2624677962"
    },
    {
      "type": "Feature",
      "properties": {
        "@id": "node/2624677963",
        "amenity": "bar",
        "name": "Le Valois"
      },
      "geometry": {
        "type": "Point",
        "coordinates": [
          2.3305918,
          48.8834005
        ]
      },
      "id": "node/2624677963"
    },
    {
      "type": "Feature",
      "properties": {
        "@id": "node/2630584155",
        "addr:city": "Paris",
        "addr:country": "FR",
        "addr:housenumber": "43",
        "addr:postcode": "75002",
        "addr:street": "Rue Saint-Sauveur",
        "amenity": "bar",
        "name": "Sof's Bar",
        "opening_hours": "Mo-Su 15:00-02:00",
        "payment:bitcoin": "yes",
        "phone": "+33 7 50 91 73 38",
        "website": "https://www.facebook.com/pages/Sofs-Bar/186530834694794",
        "wheelchair": "no"
      },
      "geometry": {
        "type": "Point",
        "coordinates": [
          2.3480098,
          48.866108
        ]
      },
      "id": "node/2630584155"
    },
    {
      "type": "Feature",
      "properties": {
        "@id": "node/2653982089",
        "amenity": "bar",
        "name": "L'Estaminet",
        "tobacco": "yes"
      },
      "geometry": {
        "type": "Point",
        "coordinates": [
          2.3673694,
          48.8650085
        ]
      },
      "id": "node/2653982089"
    },
    {
      "type": "Feature",
      "properties": {
        "@id": "node/2654266788",
        "addr:city": "Paris",
        "addr:country": "FR",
        "addr:housenumber": "1",
        "addr:postcode": "75011",
        "addr:street": "Rue Oberkampf",
        "amenity": "bar",
        "brewery": "Belzébuth ;Goudale;Goudale Ambrée;Saint-Omer",
        "name": "L'Autobus",
        "phone": "+33147006433",
        "wheelchair": "yes"
      },
      "geometry": {
        "type": "Point",
        "coordinates": [
          2.367427,
          48.8627727
        ]
      },
      "id": "node/2654266788"
    },
    {
      "type": "Feature",
      "properties": {
        "@id": "node/2656051561",
        "amenity": "bar",
        "name": "Paris London"
      },
      "geometry": {
        "type": "Point",
        "coordinates": [
          2.3254321,
          48.8699476
        ]
      },
      "id": "node/2656051561"
    },
    {
      "type": "Feature",
      "properties": {
        "@id": "node/2656051567",
        "amenity": "bar",
        "name": "Le Passage"
      },
      "geometry": {
        "type": "Point",
        "coordinates": [
          2.3230122,
          48.8696624
        ]
      },
      "id": "node/2656051567"
    },
    {
      "type": "Feature",
      "properties": {
        "@id": "node/2685475660",
        "addr:city": "Paris",
        "addr:housenumber": "26",
        "addr:postcode": "75004",
        "addr:street": "Rue des Lombards",
        "amenity": "bar",
        "name": "Black Dog",
        "wheelchair": "limited"
      },
      "geometry": {
        "type": "Point",
        "coordinates": [
          2.3492122,
          48.8594147
        ]
      },
      "id": "node/2685475660"
    },
    {
      "type": "Feature",
      "properties": {
        "@id": "node/2685481427",
        "addr:city": "Paris",
        "addr:housenumber": "22",
        "addr:postcode": "75004",
        "addr:street": "Rue des Lombards",
        "amenity": "bar",
        "name": "Sly Bar",
        "wheelchair": "yes"
      },
      "geometry": {
        "type": "Point",
        "coordinates": [
          2.3493758,
          48.8593718
        ]
      },
      "id": "node/2685481427"
    },
    {
      "type": "Feature",
      "properties": {
        "@id": "node/2685540508",
        "addr:city": "Paris",
        "addr:housenumber": "8",
        "addr:postcode": "75004",
        "addr:street": "Rue des Lombards",
        "amenity": "bar",
        "name": "Les Piétons",
        "toilets:wheelchair": "yes",
        "wheelchair": "limited"
      },
      "geometry": {
        "type": "Point",
        "coordinates": [
          2.3499381,
          48.8591459
        ]
      },
      "id": "node/2685540508"
    },
    {
      "type": "Feature",
      "properties": {
        "@id": "node/2696636916",
        "amenity": "bar",
        "name": "L'Ivress",
        "opening_hours": "Mo 18:00-24:00; Tu-Sa 00:00-01:00,18:00-24:00; Su 00:00-01:00",
        "phone": "+33 6 61 40 27 97",
        "smoking": "outside",
        "website": "http://www.livress.fr"
      },
      "geometry": {
        "type": "Point",
        "coordinates": [
          2.3475876,
          48.8686847
        ]
      },
      "id": "node/2696636916"
    },
    {
      "type": "Feature",
      "properties": {
        "@id": "node/2707103486",
        "addr:city": "Paris",
        "addr:housenumber": "127",
        "addr:postcode": "75004",
        "addr:street": "Rue Saint-Antoine",
        "amenity": "bar",
        "name": "Le Saint-Paul",
        "wheelchair": "no"
      },
      "geometry": {
        "type": "Point",
        "coordinates": [
          2.360168,
          48.8551659
        ]
      },
      "id": "node/2707103486"
    },
    {
      "type": "Feature",
      "properties": {
        "@id": "node/2710713597",
        "amenity": "bar",
        "name": "Le Petit Flore"
      },
      "geometry": {
        "type": "Point",
        "coordinates": [
          2.3394585,
          48.8624888
        ]
      },
      "id": "node/2710713597"
    },
    {
      "type": "Feature",
      "properties": {
        "@id": "node/2710713598",
        "amenity": "bar",
        "name": "Louvre Bouteille",
        "source": "survey"
      },
      "geometry": {
        "type": "Point",
        "coordinates": [
          2.3402857,
          48.8619762
        ]
      },
      "id": "node/2710713598"
    },
    {
      "type": "Feature",
      "properties": {
        "@id": "node/2751426304",
        "amenity": "bar",
        "contact:city": "Paris",
        "contact:housenumber": "90",
        "contact:postcode": "75010",
        "contact:street": "Rue du Faubourg Saint-Martin",
        "name": "Le Petit Saint-Martin",
        "smoking": "outside"
      },
      "geometry": {
        "type": "Point",
        "coordinates": [
          2.3579893,
          48.8728884
        ]
      },
      "id": "node/2751426304"
    },
    {
      "type": "Feature",
      "properties": {
        "@id": "node/2772914972",
        "addr:city": "Paris",
        "addr:housenumber": "1",
        "addr:postcode": "75003",
        "addr:street": "Place de Thorigny",
        "amenity": "bar",
        "brewery": "yes",
        "name": "Brewdog",
        "opening_hours": "Mo-We, Su 12:00-00:00; Th-Sa 12:00-02:00",
        "outdoor_seating": "yes",
        "website": "https://www.brewdog.com/bars/global/brewdog-lemarais",
        "wheelchair": "no"
      },
      "geometry": {
        "type": "Point",
        "coordinates": [
          2.3621024,
          48.8588994
        ]
      },
      "id": "node/2772914972"
    },
    {
      "type": "Feature",
      "properties": {
        "@id": "node/2778463121",
        "amenity": "bar",
        "brewery": "chouffe",
        "name": "Le Sully",
        "smoking": "outside"
      },
      "geometry": {
        "type": "Point",
        "coordinates": [
          2.3528255,
          48.8703084
        ]
      },
      "id": "node/2778463121"
    },
    {
      "type": "Feature",
      "properties": {
        "@id": "node/2799010414",
        "amenity": "bar",
        "source": "survey 2013"
      },
      "geometry": {
        "type": "Point",
        "coordinates": [
          2.3433035,
          48.8727441
        ]
      },
      "id": "node/2799010414"
    },
    {
      "type": "Feature",
      "properties": {
        "@id": "node/2826091001",
        "amenity": "bar",
        "name": "La Caravelle",
        "tobacco": "yes"
      },
      "geometry": {
        "type": "Point",
        "coordinates": [
          2.327006,
          48.876404
        ]
      },
      "id": "node/2826091001"
    },
    {
      "type": "Feature",
      "properties": {
        "@id": "node/2845039395",
        "amenity": "bar",
        "name": "Le Glass"
      },
      "geometry": {
        "type": "Point",
        "coordinates": [
          2.3372869,
          48.8815103
        ]
      },
      "id": "node/2845039395"
    },
    {
      "type": "Feature",
      "properties": {
        "@id": "node/2853546553",
        "amenity": "bar",
        "brewery": "guinness",
        "name": "Sunset"
      },
      "geometry": {
        "type": "Point",
        "coordinates": [
          2.3446987,
          48.8713994
        ]
      },
      "id": "node/2853546553"
    },