{
  "type": "FeatureCollection",
  "generator": "overpass-ide",
  "copyright": "The data included in this document is from www.openstreetmap.org. The data is made available under ODbL.",
  "timestamp": "2020-06-11T14:55:02Z",
  "features": [
    {
      "type": "Feature",
      "properties": {
        "@id": "node/247439149",
        "amenity": "bar",
        "name": "Bar Hemingway"
      },
      "geometry": {
        "type": "Point",
        "coordinates": [
          2.3275703,
          48.8688161
        ]
      },
      "id": "node/247439149"
    },
    {
      "type": "Feature",
      "properties": {
        "@id": "node/247455913",
        "amenity": "bar",
        "name": "Juvénile's",
        "opening_hours": "Tu-Sa 12:00-23:00"
      },
      "geometry": {
        "type": "Point",
        "coordinates": [
          2.3370822,
          48.8663165
        ]
      },
      "id": "node/247455913"
    },
    {
      "type": "Feature",
      "properties": {
        "@id": "node/247467737",
        "amenity": "bar",
        "name": "Willi's Wine Bar"
      },
      "geometry": {
        "type": "Point",
        "coordinates": [
          2.3382902,
          48.8663449
        ]
      },
      "id": "node/247467737"
    },
    {
      "type": "Feature",
      "properties": {
        "@id": "node/251010491",
        "amenity": "bar",
        "name": "Footsie"
      },
      "geometry": {
        "type": "Point",
        "coordinates": [
          2.3317879,
          48.8695611
        ]
      },
      "id": "node/251010491"
    },
    {
      "type": "Feature",
      "properties": {
        "@id": "node/251023849",
        "addr:housenumber": "5",
        "addr:postcode": "75002",
        "addr:street": "Rue Daunou",
        "amenity": "bar",
        "name": "Harry's Bar",
        "source": "www.harrysbar.fr",
        "toilets:wheelchair": "no",
        "wheelchair": "no",
        "wheelchair:description": "marche à l'entrée, beaucoup de monde donc impossible de faire passer un fauteuil roulant et toilettes à l'étage.",
        "wikidata": "Q1334247"
      },
      "geometry": {
        "type": "Point",
        "coordinates": [
          2.3321035,
          48.8691942
        ]
      },
      "id": "node/251023849"
    },
    {
      "type": "Feature",
      "properties": {
        "@id": "node/251699774",
        "amenity": "bar",
        "name": "10 Bar International"
      },
      "geometry": {
        "type": "Point",
        "coordinates": [
          2.3385693,
          48.8510774
        ]
      },
      "id": "node/251699774"
    },
    {
      "type": "Feature",
      "properties": {
        "@id": "node/251758249",
        "amenity": "bar",
        "bar": "cocktail",
        "name": "Buddha Bar",
        "wikidata": "Q851372"
      },
      "geometry": {
        "type": "Point",
        "coordinates": [
          2.3215688,
          48.8680799
        ]
      },
      "id": "node/251758249"
    },
    {
      "type": "Feature",
      "properties": {
        "@id": "node/252608626",
        "amenity": "bar",
        "name": "La Mercerie",
        "source": "survey"
      },
      "geometry": {
        "type": "Point",
        "coordinates": [
          2.3782276,
          48.8657437
        ]
      },
      "id": "node/252608626"
    },
    {
      "type": "Feature",
      "properties": {
        "@id": "node/274247409",
        "amenity": "bar",
        "name": "Kaskad' Café",
        "opening_hours:signed": "no"
      },
      "geometry": {
        "type": "Point",
        "coordinates": [
          2.3828693,
          48.8826925
        ]
      },
      "id": "node/274247409"
    },
    {
      "type": "Feature",
      "properties": {
        "@id": "node/274248904",
        "addr:housenumber": "14",
        "addr:postcode": "75020",
        "addr:street": "Rue des Panoyaux",
        "amenity": "bar",
        "name": "Lou Pascalou",
        "opening_hours": "Mo-Th 16:00-02:00; Fr 12:00-02:00; Sa-Su 15:00-02:00",
        "phone": "+33146367810",
        "toilets:wheelchair": "no",
        "website": "http://www.cafe-loupascalou.com",
        "wheelchair": "no"
      },
      "geometry": {
        "type": "Point",
        "coordinates": [
          2.3855356,
          48.8662404
        ]
      },
      "id": "node/274248904"
    },
    {
      "type": "Feature",
      "properties": {
        "@id": "node/282468472",
        "addr:city": "Paris",
        "addr:housenumber": "28",
        "addr:postcode": "75002",
        "addr:street": "Rue Greneta",
        "amenity": "bar",
        "checked": "2015-11-28",
        "name": "La Cordonnerie",
        "opening_hours": "Mo-Su 08:00-02:00",
        "source": "survey 2015",
        "toilets:wheelchair": "no",
        "wheelchair": "yes"
      },
      "geometry": {
        "type": "Point",
        "coordinates": [
          2.3505855,
          48.8652332
        ]
      },
      "id": "node/282468472"
    },
    {
      "type": "Feature",
      "properties": {
        "@id": "node/293982735",
        "addr:housenumber": "6",
        "addr:postcode": "75011",
        "addr:street": "Place de la République",
        "amenity": "bar",
        "name": "Mon Coco",
        "opening_hours": "Mo-Su 11:00-05:00",
        "phone": "+33147004410",
        "website": "http://www.moncoco.paris",
        "wheelchair": "limited"
      },
      "geometry": {
        "type": "Point",
        "coordinates": [
          2.3656152,
          48.8666591
        ]
      },
      "id": "node/293982735"
    },
    {
      "type": "Feature",
      "properties": {
        "@id": "node/294038638",
        "amenity": "bar",
        "name": "Le Navigateur"
      },
      "geometry": {
        "type": "Point",
        "coordinates": [
          2.3739646,
          48.8779867
        ]
      },
      "id": "node/294038638"
    },
    {
      "type": "Feature",
      "properties": {
        "@id": "node/294141121",
        "amenity": "bar",
        "name": "Café Chéri(e)"
      },
      "geometry": {
        "type": "Point",
        "coordinates": [
          2.3752962,
          48.8740973
        ]
      },
      "id": "node/294141121"
    },
    {
      "type": "Feature",
      "properties": {
        "@id": "node/294266518",
        "addr:city": "Paris",
        "addr:housenumber": "10",
        "addr:postcode": "75019",
        "addr:street": "Place de la Bataille de Stalingrad",
        "amenity": "bar",
        "layer": "0",
        "name": "25° Est"
      },
      "geometry": {
        "type": "Point",
        "coordinates": [
          2.3707556,
          48.8838984
        ]
      },
      "id": "node/294266518"
    },
    {
      "type": "Feature",
      "properties": {
        "@id": "node/305903409",
        "amenity": "bar",
        "bar": "wine_bar",
        "name": "Les Caves Populaires",
        "old_name": "Caves du Chalet",
        "phone": "+33 1 53 04 08 32",
        "smoking": "outside",
        "source": "survey:2015-04-03"
      },
      "geometry": {
        "type": "Point",
        "coordinates": [
          2.3246274,
          48.8847758
        ]
      },
      "id": "node/305903409"
    },
    {
      "type": "Feature",
      "properties": {
        "@id": "node/308204330",
        "amenity": "bar",
        "name": "Le Gambetta"
      },
      "geometry": {
        "type": "Point",
        "coordinates": [
          2.4030888,
          48.8595367
        ]
      },
      "id": "node/308204330"
    },
    {
      "type": "Feature",
      "properties": {
        "@id": "node/323061031",
        "amenity": "bar",
        "name": "Café Universel"
      },
      "geometry": {
        "type": "Point",
        "coordinates": [
          2.3413738,
          48.8416772
        ]
      },
      "id": "node/323061031"
    },
    {
      "type": "Feature",
      "properties": {
        "@id": "node/333550932",
        "addr:city": "Paris",
        "addr:housenumber": "40",
        "addr:postcode": "75010",
        "addr:street": "Rue d'Enghien",
        "amenity": "bar",
        "brewery": "yes",
        "cuisine": "tapas",
        "name": "Kouto",
        "opening_hours": "Tu-Sa 18:00-02:00",
        "phone": "+33 6 49 28 28 45",
        "website": "https://kouto.business.site/"
      },
      "geometry": {
        "type": "Point",
        "coordinates": [
          2.3492571,
          48.872313
        ]
      },
      "id": "node/333550932"
    },
    {
      "type": "Feature",
      "properties": {
        "@id": "node/416560238",
        "amenity": "bar",
        "name": "Café Charbon",
        "source": "survey"
      },
      "geometry": {
        "type": "Point",
        "coordinates": [
          2.3778299,
          48.8658567
        ]
      },
      "id": "node/416560238"
    },
    {
      "type": "Feature",
      "properties": {
        "@id": "node/418055930",
        "amenity": "bar",
        "name": "Le Little",
        "opening_hours": "Mo-Su 17:00-02:00"
      },
      "geometry": {
        "type": "Point",
        "coordinates": [
          2.3660388,
          48.8667141
        ]
      },
      "id": "node/418055930"
    },
    {
      "type": "Feature",
      "properties": {
        "@id": "node/418065632",
        "amenity": "bar",
        "name": "Bar du Lycée"
      },
      "geometry": {
        "type": "Point",
        "coordinates": [
          2.3867385,
          48.8639411
        ]
      },
      "id": "node/418065632"
    },
    {
      "type": "Feature",
      "properties": {
        "@id": "node/418074933",
        "amenity": "bar",
        "name": "Le Grenier"
      },
      "geometry": {
        "type": "Point",
        "coordinates": [
          2.381594,
          48.8665891
        ]
      },
      "id": "node/418074933"
    },
    {
      "type": "Feature",
      "properties": {
        "@id": "node/418140401",
        "addr:city": "Paris",
        "addr:housenumber": "141",
        "addr:postcode": "75011",
        "addr:street": "Rue Saint-Maur",
        "amenity": "bar",
        "name": "Chair De Poule",
        "opening_hours": "Mo-Sa 08:00-18:00; Su 17:00-00:00",
        "phone": "+33 1 43 38 89 06",
        "website": "http://chairdepouleparis.com"
      },
      "geometry": {
        "type": "Point",
        "coordinates": [
          2.3754429,
          48.8676415
        ]
      },
      "id": "node/418140401"
    },
    {
      "type": "Feature",
      "properties": {
        "@id": "node/428043446",
        "addr:city": "Paris",
        "addr:housenumber": "64-66",
        "addr:postcode": "75011",
        "addr:street": "Rue de Charonne",
        "amenity": "bar",
        "name": "Les Cuves de Fauve"
      },
      "geometry": {
        "type": "Point",
        "coordinates": [
          2.3792329,
          48.8532825
        ]
      },
      "id": "node/428043446"
    },
    {
      "type": "Feature",
      "properties": {
        "@id": "node/428061630",
        "amenity": "bar",
        "name": "Le Virginie",
        "source": "knowledge"
      },
      "geometry": {
        "type": "Point",
        "coordinates": [
          2.3851348,
          48.849738
        ]
      },
      "id": "node/428061630"
    },
    {
      "type": "Feature",
      "properties": {
        "@id": "node/428064695",
        "addr:housenumber": "6",
        "addr:street": "Rue de la Main d'Or",
        "amenity": "bar",
        "name": "Le Fanfaron",
        "phone": "+33149234114"
      },
      "geometry": {
        "type": "Point",
        "coordinates": [
          2.3783213,
          48.8516517
        ]
      },
      "id": "node/428064695"
    },
    {
      "type": "Feature",
      "properties": {
        "@id": "node/428164786",
        "addr:city": "Paris",
        "addr:housenumber": "240",
        "addr:postcode": "75012",
        "addr:street": "Rue du Faubourg Saint-Antoine",
        "amenity": "bar",
        "name": "Le Petit Louis",
        "old_name": "\"Patrick's Le Ballon Vert"
      },
      "geometry": {
        "type": "Point",
        "coordinates": [
          2.389517,
          48.8492104
        ]
      },
      "id": "node/428164786"
    },
    {
      "type": "Feature",
      "properties": {
        "@id": "node/429660096",
        "amenity": "bar",
        "name": "La Halte des Taxis"
      },
      "geometry": {
        "type": "Point",
        "coordinates": [
          2.3615547,
          48.8330139
        ]
      },
      "id": "node/429660096"
    },
    {
      "type": "Feature",
      "properties": {
        "@id": "node/442505759",
        "amenity": "bar",
        "brewery": "Jeanlain Six",
        "name": "La Caravane",
        "opening_hours": "Mo-Su 11:00-2:00",
        "phone": "+33 1 49 23 01 86",
        "website": "http://www.lacaravane.eu/"
      },
      "geometry": {
        "type": "Point",
        "coordinates": [
          2.3714939,
          48.8683288
        ]
      },
      "id": "node/442505759"
    },
    {
      "type": "Feature",
      "properties": {
        "@id": "node/446819198",
        "amenity": "bar",
        "cuisine": "couscous",
        "description": "Bar & restaurant",
        "level": "0",
        "name": "Le Dellys",
        "opening_hours": "Mo 10:00-24:00; Tu-Fr 00:00-02:00,10:00-24:00; Sa 16:00-24:00; Su 00:00-02:00",
        "phone": "+33 1 40 34 90 74",
        "restaurant": "yes",
        "source": "survey 02/2019",
        "website": "http://www.le-dellys.com"
      },
      "geometry": {
        "type": "Point",
        "coordinates": [
          2.3578049,
          48.8783181
        ]
      },
      "id": "node/446819198"
    },
    {
      "type": "Feature",
      "properties": {
        "@id": "node/493163514",
        "amenity": "bar",
        "brewery": "Affligem;Edelweiss;pelforth;Bière de Bourges",
        "internet_access": "wlan",
        "name": "Les Pères Populaires"
      },
      "geometry": {
        "type": "Point",
        "coordinates": [
          2.4018663,
          48.8510126
        ]
      },
      "id": "node/493163514"
    },
    {
      "type": "Feature",
      "properties": {
        "@id": "node/493761019",
        "amenity": "bar",
        "name": "Le Jean Bart"
      },
      "geometry": {
        "type": "Point",
        "coordinates": [
          2.401582,
          48.8517859
        ]
      },
      "id": "node/493761019"
    },
    {
      "type": "Feature",
      "properties": {
        "@id": "node/494663867",
        "amenity": "bar",
        "name": "Losserand Café"
      },
      "geometry": {
        "type": "Point",
        "coordinates": [
          2.3181857,
          48.8338366
        ]
      },
      "id": "node/494663867"
    },
    {
      "type": "Feature",
      "properties": {
        "@id": "node/519049977",
        "amenity": "bar",
        "name": "Le Bistrot de Juliette"
      },
      "geometry": {
        "type": "Point",
        "coordinates": [
          2.4005135,
          48.8345868
        ]
      },
      "id": "node/519049977"
    },
    {
      "type": "Feature",
      "properties": {
        "@id": "node/519049990",
        "amenity": "bar",
        "name": "Le Diplomate",
        "opening_hours": "Mo-Fr 07:00-20:30; Su 09:00-20:30",
        "wheelchair": "limited"
      },
      "geometry": {
        "type": "Point",
        "coordinates": [
          2.4007736,
          48.834455
        ]
      },
      "id": "node/519049990"
    },
    {
      "type": "Feature",
      "properties": {
        "@id": "node/530272890",
        "amenity": "bar",
        "name": "Chez Habibi",
        "opening_hours": "Mo-Su 17:00-02:00"
      },
      "geometry": {
        "type": "Point",
        "coordinates": [
          2.375025,
          48.8493959
        ]
      },
      "id": "node/530272890"
    },
    {
      "type": "Feature",
      "properties": {
        "@id": "node/534660992",
        "addr:city": "Paris",
        "addr:housenumber": "1",
        "addr:postcode": "75018",
        "addr:street": "Rue Paul Albert",
        "amenity": "bar",
        "name": "Botak",
        "opening_hours": "Closed",
        "source": "ground"
      },
      "geometry": {
        "type": "Point",
        "coordinates": [
          2.344949,
          48.8864916
        ]
      },
      "id": "node/534660992"
    },
    {
      "type": "Feature",
      "properties": {
        "@id": "node/539397543",
        "amenity": "bar",
        "brewery": "Guinness",
        "internet_access": "yes",
        "name": "Supersonic",
        "old_name": "OPA",
        "smoking": "isolated",
        "start_date": "2016-01",
        "website": "http://supersonic-club.fr/"
      },
      "geometry": {
        "type": "Point",
        "coordinates": [
          2.3697074,
          48.8501393
        ]
      },
      "id": "node/539397543"
    },
    {
      "type": "Feature",
      "properties": {
        "@id": "node/568454764",
        "amenity": "bar",
        "cuisine": "chinese",
        "name": "Chez Chen"
      },
      "geometry": {
        "type": "Point",
        "coordinates": [
          2.380134,
          48.8919041
        ]
      },
      "id": "node/568454764"
    },
    {
      "type": "Feature",
      "properties": {
        "@id": "node/568457895",
        "amenity": "bar"
      },
      "geometry": {
        "type": "Point",
        "coordinates": [
          2.3820001,
          48.8906427
        ]
      },
      "id": "node/568457895"
    },
    {
      "type": "Feature",
      "properties": {
        "@id": "node/568459562",
        "amenity": "bar",
        "brewery": "tripel_karmeliet",
        "name": "Mama Kin",
        "wheelchair": "limited"
      },
      "geometry": {
        "type": "Point",
        "coordinates": [
          2.3833861,
          48.8895378
        ]
      },
      "id": "node/568459562"
    },
    {
      "type": "Feature",
      "properties": {
        "@id": "node/594054765",
        "addr:housenumber": "24",
        "addr:street": "Rue Duméril",
        "amenity": "bar",
        "brewery": "leffe;faro;Barbãr Bok;Queue De Charrue Ambrée",
        "internet_access": "no",
        "name": "La Fût Gueuze"
      },
      "geometry": {
        "type": "Point",
        "coordinates": [
          2.358319,
          48.8363055
        ]
      },
      "id": "node/594054765"
    },
    {
      "type": "Feature",
      "properties": {
        "@id": "node/599513255",
        "addr:city": "Paris",
        "addr:housenumber": "17",
        "addr:postcode": "75004",
        "addr:street": "Rue des Archives",
        "amenity": "bar",
        "lgbtq": "primary",
        "name": "Open Café",
        "outdoor_seating": "yes",
        "survey:date": "2017-07-05",
        "toilets:wheelchair": "no",
        "wheelchair": "designated"
      },
      "geometry": {
        "type": "Point",
        "coordinates": [
          2.3550423,
          48.8584562
        ]
      },
      "id": "node/599513255"
    },
    {
      "type": "Feature",
      "properties": {
        "@id": "node/599513533",
        "addr:city": "Paris",
        "addr:housenumber": "15",
        "addr:postcode": "75004",
        "addr:street": "Rue des Archives",
        "amenity": "bar",
        "facebook": "https://www.facebook.com/cafecoxbarparis",
        "lgbtq": "primary",
        "lgbtq:men": "primary",
        "name": "Cox",
        "opening_hours": "Mo-Su 17:00-02:00",
        "smoking": "outside",
        "twitter": "cafecoxbarparis",
        "website": "http://cox.fr/"
      },
      "geometry": {
        "type": "Point",
        "coordinates": [
          2.3548214,
          48.8582377
        ]
      },
      "id": "node/599513533"
    },
    {
      "type": "Feature",
      "properties": {
        "@id": "node/599514799",
        "addr:city": "Paris",
        "amenity": "bar",
        "lgbtq": "primary",
        "name": "Le Raidd"
      },
      "geometry": {
        "type": "Point",
        "coordinates": [
          2.3534861,
          48.8589115
        ]
      },
      "id": "node/599514799"
    },
    {
      "type": "Feature",
      "properties": {
        "@id": "node/599514968",
        "amenity": "bar",
        "name": "QG"
      },
      "geometry": {
        "type": "Point",
        "coordinates": [
          2.3534175,
          48.860252
        ]
      },
      "id": "node/599514968"
    },
    {
      "type": "Feature",
      "properties": {
        "@id": "node/599515061",
        "addr:city": "Paris",
        "addr:housenumber": "10",
        "addr:postcode": "75004",
        "addr:street": "Rue de la Verrerie",
        "amenity": "bar",
        "lgbtq": "primary",
        "name": "Quetzal Bar",
        "phone": "+33 1 48 87 99 07",
        "website": "https://www.facebook.com/quetzalbarparis/"
      },
      "geometry": {
        "type": "Point",
        "coordinates": [
          2.3552063,
          48.8572153
        ]
      },
      "id": "node/599515061"
    },
    {
      "type": "Feature",
      "properties": {
        "@id": "node/629665565",
        "addr:city": "Paris",
        "addr:country": "FR",
        "addr:housenumber": "10",
        "addr:postcode": "75018",
        "addr:street": "Rue Hégésippe Moreau",
        "amenity": "bar",
        "internet_access": "wlan",
        "name": "Karambole Café",
        "source": "cadastre-dgi-fr source : Direction Générale des Impôts - Cadastre ; mise à jour : 2010"
      },
      "geometry": {
        "type": "Point",
        "coordinates": [
          2.327201,
          48.887279
        ]
      },
      "id": "node/629665565"
    },
    {
      "type": "Feature",
      "properties": {
        "@id": "node/667281515",
        "amenity": "bar",
        "name": "L'Orange Mécanique"
      },
      "geometry": {
        "type": "Point",
        "coordinates": [
          2.3755821,
          48.8671317
        ]
      },
      "id": "node/667281515"
    },
    {
      "type": "Feature",
      "properties": {
        "@id": "node/667305411",
        "amenity": "bar",
        "brewery": "Amstel;H-Beer;Leffe",
        "name": "Le Rota"
      },
      "geometry": {
        "type": "Point",
        "coordinates": [
          2.3895178,
          48.8503838
        ]
      },
      "id": "node/667305411"
    },
    {
      "type": "Feature",
      "properties": {
        "@id": "node/676028807",
        "amenity": "bar",
        "name": "Le Lescot"
      },
      "geometry": {
        "type": "Point",
        "coordinates": [
          2.3889995,
          48.8753301
        ]
      },
      "id": "node/676028807"
    },
    {
      "type": "Feature",
      "properties": {
        "@id": "node/677967483",
        "addr:city": "Paris",
        "addr:housenumber": "64",
        "addr:postcode": "75001",
        "addr:street": "Rue des Lombards",
        "amenity": "bar",
        "brewery": "yes",
        "name": "Au Diable des Lombards",
        "opening_hours": "Mo-Su 08:00-02:00",
        "outdoor_seating": "yes",
        "payment:cash": "yes",
        "payment:credit_cards": "yes",
        "payment:debit_cards": "yes",
        "payment:visa": "yes",
        "smoking": "no",
        "source": "cadastre-dgi-fr source : Direction Générale des Impôts - Cadastre. Mise à jour : 2010",
        "toilets:wheelchair": "yes",
        "wheelchair": "yes"
      },
      "geometry": {
        "type": "Point",
        "coordinates": [
          2.3475059,
          48.859895
        ]
      },
      "id": "node/677967483"
    },
    {
      "type": "Feature",
      "properties": {
        "@id": "node/678029796",
        "addr:housenumber": "71",
        "addr:street": "Rue Saint-Honoré",
        "amenity": "bar",
        "brewery": "Guinness;Kronenbourg;1664;Grimbergen;Carlsberg",
        "name": "Le Bar des Halles",
        "source": "cadastre-dgi-fr source : Direction Générale des Impôts - Cadastre. Mise à jour : 2010"
      },
      "geometry": {
        "type": "Point",
        "coordinates": [
          2.3442771,
          48.8611078
        ]
      },
      "id": "node/678029796"
    },
    {
      "type": "Feature",
      "properties": {
        "@id": "node/679414266",
        "addr:city": "Paris",
        "addr:housenumber": "143",
        "addr:street": "Rue Saint-Honoré",
        "amenity": "bar",
        "name": "L'Oratoire",
        "source": "cadastre-dgi-fr source : Direction Générale des Impôts - Cadastre. Mise à jour : 2010"
      },
      "geometry": {
        "type": "Point",
        "coordinates": [
          2.3405848,
          48.8617534
        ]
      },
      "id": "node/679414266"
    },
    {
      "type": "Feature",
      "properties": {
        "@id": "node/681315248",
        "addr:housenumber": "58",
        "addr:street": "Rue Jean-Jacques Rousseau",
        "amenity": "bar",
        "name": "Le Ballroom du Beefclub"
      },
      "geometry": {
        "type": "Point",
        "coordinates": [
          2.3435193,
          48.8639477
        ]
      },
      "id": "node/681315248"
    },
    {
      "type": "Feature",
      "properties": {
        "@id": "node/681479170",
        "amenity": "bar",
        "name": "Le Nustrale",
        "source": "cadastre-dgi-fr source : Direction Générale des Impôts - Cadastre. Mise à jour : 2010"
      },
      "geometry": {
        "type": "Point",
        "coordinates": [
          2.3408552,
          48.8646538
        ]
      },
      "id": "node/681479170"
    },
    {
      "type": "Feature",
      "properties": {
        "@id": "node/683283114",
        "addr:housenumber": "10",
        "addr:street": "Rue du Marché Saint-Honoré",
        "amenity": "bar",
        "name": "Le Rubis",
        "name:fr": "Le Rubis",
        "source": "cadastre-dgi-fr source : Direction Générale des Impôts - Cadastre. Mise à jour : 2010"
      },
      "geometry": {
        "type": "Point",
        "coordinates": [
          2.3313684,
          48.8662382
        ]
      },
      "id": "node/683283114"
    },
    {
      "type": "Feature",
      "properties": {
        "@id": "node/685532303",
        "amenity": "bar",
        "cuisine": "pizza",
        "name": "Lauretta",
        "opening_hours:covid19": "open",
        "phone": "+33 9 53 92 51 95"
      },
      "geometry": {
        "type": "Point",
        "coordinates": [
          2.3751222,
          48.8741795
        ]
      },
      "id": "node/685532303"
    },
    {
      "type": "Feature",
      "properties": {
        "@id": "node/685604405",
        "amenity": "bar",
        "name": "Le Gaillon",
        "opening_hours:covid19": "off",
        "source": "cadastre-dgi-fr source : Direction Générale des Impôts - Cadastre. Mise à jour : 2010",
        "tobacco": "yes"
      },
      "geometry": {
        "type": "Point",
        "coordinates": [
          2.3345642,
          48.868971
        ]
      },
      "id": "node/685604405"
    },
    {
      "type": "Feature",
      "properties": {
        "@id": "node/687029204",
        "addr:housenumber": "19",
        "addr:street": "Rue de Choiseul",
        "amenity": "bar",
        "name": "Chez Xala",
        "name:fr": "Chez Xala",
        "source": "cadastre-dgi-fr source : Direction Générale des Impôts - Cadastre. Mise à jour : 2010"
      },
      "geometry": {
        "type": "Point",
        "coordinates": [
          2.3359056,
          48.870302
        ]
      },
      "id": "node/687029204"
    },
    {
      "type": "Feature",
      "properties": {
        "@id": "node/687750878",
        "amenity": "bar",
        "description": "Bar à Tapas",
        "name": "A. Noste",
        "source": "survey"
      },
      "geometry": {
        "type": "Point",
        "coordinates": [
          2.3392086,
          48.8691957
        ]
      },
      "id": "node/687750878"
    },
    {
      "type": "Feature",
      "properties": {
        "@id": "node/687751001",
        "amenity": "bar",
        "name": "Le Louis d'Or",
        "source": "cadastre-dgi-fr source : Direction Générale des Impôts - Cadastre. Mise à jour : 2010"
      },
      "geometry": {
        "type": "Point",
        "coordinates": [
          2.339716,
          48.8693708
        ]
      },
      "id": "node/687751001"
    },
    {
      "type": "Feature",
      "properties": {
        "@id": "node/687892841",
        "addr:housenumber": "53",
        "addr:street": "Rue Vivienne",
        "amenity": "bar",
        "name": "Chez Carmen",
        "name:fr": "Chez Carmen"
      },
      "geometry": {
        "type": "Point",
        "coordinates": [
          2.3413564,
          48.8714764
        ]
      },
      "id": "node/687892841"
    },
    {
      "type": "Feature",
      "properties": {
        "@id": "node/689456582",
        "addr:housenumber": "13",
        "addr:street": "Rue du Croissant",
        "amenity": "bar",
        "name": "Le Macareux",
        "source": "cadastre-dgi-fr source : Direction Générale des Impôts - Cadastre. Mise à jour : 2010"
      },
      "geometry": {
        "type": "Point",
        "coordinates": [
          2.3442332,
          48.8688139
        ]
      },
      "id": "node/689456582"
    },
    {
      "type": "Feature",
      "properties": {
        "@id": "node/689543621",
        "amenity": "bar",
        "brewery": "chouffe;guinness",
        "name": "Thirsty Mad Cat",
        "outdoor_seating": "yes",
        "source": "cadastre-dgi-fr source : Direction Générale des Impôts - Cadastre. Mise à jour : 2010"
      },
      "geometry": {
        "type": "Point",
        "coordinates": [
          2.3438772,
          48.8678019
        ]
      },
      "id": "node/689543621"
    },
    {
      "type": "Feature",
      "properties": {
        "@id": "node/691436463",
        "addr:housenumber": "21",
        "addr:postcode": "75002",
        "addr:street": "Rue Saint-Sauveur",
        "amenity": "bar",
        "name": "Avek",
        "opening_hours": "Mo-Sa 18:00-02:00",
        "source": "cadastre-dgi-fr source : Direction Générale des Impôts - Cadastre. Mise à jour : 2010",
        "wheelchair": "limited"
      },
      "geometry": {
        "type": "Point",
        "coordinates": [
          2.3488784,
          48.865964
        ]
      },
      "id": "node/691436463"
    },
    {
      "type": "Feature",
      "properties": {
        "@id": "node/694399350",
        "amenity": "bar",
        "brewery": "Leffe",
        "name": "Lounge Paradise",
        "source": "cadastre-dgi-fr source : Direction Générale des Impôts - Cadastre. Mise à jour : 2010"
      },
      "geometry": {
        "type": "Point",
        "coordinates": [
          2.3483529,
          48.8704075
        ]
      },
      "id": "node/694399350"
    },
    {
      "type": "Feature",
      "properties": {
        "@id": "node/697029196",
        "amenity": "bar",
        "name": "Le Saint-Louis",
        "source": "cadastre-dgi-fr source : Direction Générale des Impôts - Cadastre. Mise à jour : 2010"
      },
      "geometry": {
        "type": "Point",
        "coordinates": [
          2.3568707,
          48.8523357
        ]
      },
      "id": "node/697029196"
    },
    {
      "type": "Feature",
      "properties": {
        "@id": "node/700449087",
        "addr:housenumber": "33",
        "addr:postcode": "75004",
        "addr:street": "Rue de la Verrerie",
        "amenity": "bar",
        "name": "Le perchoir Marais",
        "name:fr": "Le perchoir Marais",
        "opening_hours": "Mo-Sa 20:00-02:00; Su 19:00-02:00",
        "source": "cadastre-dgi-fr source : Direction Générale des Impôts - Cadastre. Mise à jour : 2010",
        "website": "http://leperchoir.fr"
      },
      "geometry": {
        "type": "Point",
        "coordinates": [
          2.3539471,
          48.8575589
        ]
      },
      "id": "node/700449087"
    },
    {
      "type": "Feature",
      "properties": {
        "@id": "node/702751011",
        "addr:housenumber": "37",
        "addr:street": "Rue Vieille du Temple",
        "amenity": "bar",
        "name": "Yono's",
        "opening_hours": "Tu-Su 17:00-1:30",
        "phone": "+33 1 42 74 31 65",
        "source": "cadastre-dgi-fr source : Direction Générale des Impôts - Cadastre. Mise à jour : 2010"
      },
      "geometry": {
        "type": "Point",
        "coordinates": [
          2.3576815,
          48.8577487
        ]
      },
      "id": "node/702751011"
    },
    {
      "type": "Feature",
      "properties": {
        "@id": "node/702916141",
        "addr:housenumber": "4",
        "addr:street": "Rue du Bourg Tibourg",
        "amenity": "bar",
        "name": "Feria Café",
        "phone": "+33 1 42 72 43 99",
        "source": "cadastre-dgi-fr source : Direction Générale des Impôts - Cadastre. Mise à jour : 2010"
      },
      "geometry": {
        "type": "Point",
        "coordinates": [
          2.3558116,
          48.8567788
        ]
      },
      "id": "node/702916141"
    },
    {
      "type": "Feature",
      "properties": {
        "@id": "node/703870781",
        "addr:housenumber": "3",
        "addr:postcode": "75004",
        "addr:street": "Rue des Tournelles",
        "amenity": "bar",
        "cuisine": "french",
        "name": "Bubar",
        "source": "cadastre-dgi-fr source : Direction Générale des Impôts - Cadastre. Mise à jour : 2010"
      },
      "geometry": {
        "type": "Point",
        "coordinates": [
          2.3672909,
          48.8539723
        ]
      },
      "id": "node/703870781"
    },
    {
      "type": "Feature",
      "properties": {
        "@id": "node/704819800",
        "addr:housenumber": "64",
        "amenity": "bar",
        "name": "Bodega 64",
        "phone": "+33 1 48 04 59 11",
        "source": "cadastre-dgi-fr source : Direction Générale des Impôts - Cadastre. Mise à jour : 2010"
      },
      "geometry": {
        "type": "Point",
        "coordinates": [
          2.3580795,
          48.8554369
        ]
      },
      "id": "node/704819800"
    },
    {
      "type": "Feature",
      "properties": {
        "@id": "node/705299975",
        "addr:housenumber": "20",
        "addr:postcode": "75004",
        "addr:street": "Rue Beautreillis",
        "amenity": "bar",
        "name": "Sherry Butt",
        "source": "cadastre-dgi-fr source : Direction Générale des Impôts - Cadastre. Mise à jour : 2010"
      },
      "geometry": {
        "type": "Point",
        "coordinates": [
          2.3640898,
          48.853292
        ]
      },
      "id": "node/705299975"
    },
    {
      "type": "Feature",
      "properties": {
        "@id": "node/705657876",
        "addr:city": "Paris",
        "addr:country": "FR",
        "addr:housenumber": "78",
        "addr:street": "Rue Quincampoix",
        "amenity": "bar",
        "name": "L'Art Brut Bistrot",
        "opening_hours": "Mo-Su 16:00-02:00",
        "source": "cadastre-dgi-fr source : Direction Générale des Impôts - Cadastre. Mise à jour : 2010",
        "toilets:wheelchair": "no",
        "website": "http://www.artbrutbistrot.fr",
        "wheelchair": "no"
      },
      "geometry": {
        "type": "Point",
        "coordinates": [
          2.3511124,
          48.8621665
        ]
      },
      "id": "node/705657876"
    },
    {
      "type": "Feature",
      "properties": {
        "@id": "node/706391394",
        "amenity": "bar",
        "name": "O'Kfée",
        "wheelchair": "limited"
      },
      "geometry": {
        "type": "Point",
        "coordinates": [
          2.355008,
          48.8643703
        ]
      },
      "id": "node/706391394"
    },
    {
      "type": "Feature",
      "properties": {
        "@id": "node/708488355",
        "addr:city": "Paris",
        "addr:housenumber": "4",
        "addr:postcode": "75005",
        "addr:street": "Rue de la Harpe",
        "amenity": "bar",
        "name": "Café Bar Les Affiches",
        "opening_hours": "Th-Sa 18:00-24:00",
        "source": "cadastre-dgi-fr source : Direction Générale des Impôts - Cadastre;mise à jour : 2010"
      },
      "geometry": {
        "type": "Point",
        "coordinates": [
          2.3445259,
          48.8530176
        ]
      },
      "id": "node/708488355"
    },
    {
      "type": "Feature",
      "properties": {
        "@id": "node/715428526",
        "addr:housenumber": "6",
        "addr:street": "Rue Cochin",
        "amenity": "bar",
        "name": "La Frange",
        "opening_hours": "Mo-Su 18:00-02:00",
        "phone": "+33 1 82 09 87 29",
        "source": "cadastre-dgi-fr source : Direction Générale des Impôts - Cadastre. Mise à jour : 2010",
        "website": "https://www.facebook.com/LaFrangebar/"
      },
      "geometry": {
        "type": "Point",
        "coordinates": [
          2.3527292,
          48.8501786
        ]
      },
      "id": "node/715428526"
    },
    {
      "type": "Feature",
      "properties": {
        "@id": "node/726666485",
        "addr:housenumber": "4",
        "addr:street": "Rue des Fossés Saint-Jacques",
        "amenity": "bar",
        "happy_hours": "17:00-21:00",
        "name": "Le Confessionnal",
        "opening_hours": "Mo-Sa 17:00-02:00 ; Su 19:00-02:00",
        "source": "cadastre-dgi-fr source : Direction Générale des Impôts - Cadastre ; mise à jour : 2010"
      },
      "geometry": {
        "type": "Point",
        "coordinates": [
          2.3435349,
          48.845916
        ]
      },
      "id": "node/726666485"
    },
    {
      "type": "Feature",
      "properties": {
        "@id": "node/726884432",
        "amenity": "bar",
        "drink:natural_wine": "yes",
        "drink:wine": "yes",
        "name": "La Buvette"
      },
      "geometry": {
        "type": "Point",
        "coordinates": [
          2.3793124,
          48.8628942
        ]
      },
      "id": "node/726884432"
    },
    {
      "type": "Feature",
      "properties": {
        "@id": "node/729117604",
        "amenity": "bar",
        "name": "Le Sans Souci",
        "source": "cadastre-dgi-fr source : Direction Générale des Impôts - Cadastre. Mise à jour : 2010"
      },
      "geometry": {
        "type": "Point",
        "coordinates": [
          2.3361254,
          48.8813024
        ]
      },
      "id": "node/729117604"
    },
    {
      "type": "Feature",
      "properties": {
        "@id": "node/735096099",
        "addr:housenumber": "88",
        "addr:street": "Rue Saint-Maur",
        "amenity": "bar",
        "name": "La Popina",
        "opening_hours": "Mo-Fr 17:00-02:00; Sa-Su 18:00-02:00",
        "phone": "+33 1 48 07 33 05",
        "website": "https://www.lapopina.paris"
      },
      "geometry": {
        "type": "Point",
        "coordinates": [
          2.3779376,
          48.8649817
        ]
      },
      "id": "node/735096099"
    },
    {
      "type": "Feature",
      "properties": {
        "@id": "node/735171891",
        "amenity": "bar",
        "name": "L'oasis 244"
      },
      "geometry": {
        "type": "Point",
        "coordinates": [
          2.3666359,
          48.8821123
        ]
      },
      "id": "node/735171891"
    },
    {
      "type": "Feature",
      "properties": {
        "@id": "node/735172024",
        "amenity": "bar",
        "cuisine": "french",
        "name": "Cristal Bar"
      },
      "geometry": {
        "type": "Point",
        "coordinates": [
          2.364716,
          48.8812021
        ]
      },
      "id": "node/735172024"
    },
    {
      "type": "Feature",
      "properties": {
        "@id": "node/749696090",
        "addr:city": "Paris",
        "addr:country": "FR",
        "addr:housenumber": "68",
        "addr:postcode": "75019",
        "addr:street": "Quai de la Loire",
        "amenity": "bar",
        "name": "Bar Ourcq",
        "note:fr": "Fermé l'hiver",
        "opening_hours": "We-Sa 15:00-22:00; Su 15:00-02:00",
        "phone": "+33142401226",
        "wheelchair": "no"
      },
      "geometry": {
        "type": "Point",
        "coordinates": [
          2.377235,
          48.8864617
        ]
      },
      "id": "node/749696090"
    },
    {
      "type": "Feature",
      "properties": {
        "@id": "node/773602071",
        "amenity": "bar",
        "contact:city": "Paris",
        "contact:housenumber": "337",
        "contact:postcode": "75003",
        "contact:street": "Rue Saint-Martin",
        "name": "Le Parisien",
        "smoking": "outside"
      },
      "geometry": {
        "type": "Point",
        "coordinates": [
          2.354882,
          48.8680162
        ]
      },
      "id": "node/773602071"
    },
    {
      "type": "Feature",
      "properties": {
        "@id": "node/776938194",
        "amenity": "bar",
        "name": "Le Tennessee"
      },
      "geometry": {
        "type": "Point",
        "coordinates": [
          2.3390379,
          48.8537741
        ]
      },
      "id": "node/776938194"
    },
    {
      "type": "Feature",
      "properties": {
        "@id": "node/778220091",
        "amenity": "bar",
        "name": "La Rhumerie"
      },
      "geometry": {
        "type": "Point",
        "coordinates": [
          2.3355231,
          48.853395
        ]
      },
      "id": "node/778220091"
    },
    {
      "type": "Feature",
      "properties": {
        "@id": "node/805954732",
        "addr:housenumber": "4",
        "addr:street": "Rue des Canettes",
        "amenity": "bar",
        "name": "Chai Antoine",
        "source": "cadastre-dgi-fr source : Direction Générale des Impôts - Cadastre. Mise à jour : 2010"
      },
      "geometry": {
        "type": "Point",
        "coordinates": [
          2.3336432,
          48.8524808
        ]
      },
      "id": "node/805954732"
    },
    {
      "type": "Feature",
      "properties": {
        "@id": "node/806010995",
        "addr:housenumber": "13",
        "addr:postcode": "75006",
        "addr:street": "Rue Princesse",
        "amenity": "bar",
        "name": "Tiger",
        "name:fr": "Tiger",
        "opening_hours": "Mo-Sa 18:00-02:00",
        "source": "cadastre-dgi-fr source : Direction Générale des Impôts - Cadastre. Mise à jour : 2010"
      },
      "geometry": {
        "type": "Point",
        "coordinates": [
          2.3345667,
          48.8521181
        ]
      },
      "id": "node/806010995"
    },
    {
      "type": "Feature",
      "properties": {
        "@id": "node/806114404",
        "addr:housenumber": "3",
        "addr:postcode": "75006",
        "addr:street": "Rue de l'Ancienne Comédie",
        "amenity": "bar",
        "entrance": "yes",
        "name": "Bar III",
        "website": "http://www.bar3stgermain.com/",
        "wheelchair": "no",
        "wifi": "yes"
      },
      "geometry": {
        "type": "Point",
        "coordinates": [
          2.338545,
          48.8534529
        ]
      },
      "id": "node/806114404"
    },
    {
      "type": "Feature",
      "properties": {
        "@id": "node/811326704",
        "amenity": "bar",
        "name": "El Tonel"
      },
      "geometry": {
        "type": "Point",
        "coordinates": [
          2.3323292,
          48.8643001
        ]
      },
      "id": "node/811326704"
    },
    {
      "type": "Feature",
      "properties": {
        "@id": "node/812129610",
        "amenity": "bar",
        "name": "Le Comptoir du Faubourg",
        "source": "cadastre-dgi-fr source : Direction Générale des Impôts - Cadastre. Mise à jour : 2010"
      },
      "geometry": {
        "type": "Point",
        "coordinates": [
          2.3211802,
          48.8706806
        ]
      },
      "id": "node/812129610"
    },
    {
      "type": "Feature",
      "properties": {
        "@id": "node/813394579",
        "amenity": "bar",
        "name": "Elysée Lounge",
        "source": "cadastre-dgi-fr source : Direction Générale des Impôts - Cadastre. Mise à jour : 2010"
      },
      "geometry": {
        "type": "Point",
        "coordinates": [
          2.316952,
          48.871252
        ]
      },
      "id": "node/813394579"
    },
    {
      "type": "Feature",
      "properties": {
        "@id": "node/819031352",
        "amenity": "bar",
        "name": "Le Seven",
        "source": "cadastre-dgi-fr source : Direction Générale des Impôts - Cadastre. Mise à jour : 2010"
      },
      "geometry": {
        "type": "Point",
        "coordinates": [
          2.3235567,
          48.8803557
        ]
      },
      "id": "node/819031352"
    },
    {
      "type": "Feature",
      "properties": {
        "@id": "node/822951734",
        "amenity": "bar",
        "name": "Le Treilhard Bar",
        "source": "cadastre-dgi-fr source : Direction Générale des Impôts - Cadastre. Mise à jour : 2010"
      },
      "geometry": {
        "type": "Point",
        "coordinates": [
          2.314835,
          48.8769627
        ]
      },
      "id": "node/822951734"
    },
    {
      "type": "Feature",
      "properties": {
        "@id": "node/828825713",
        "amenity": "bar",
        "name": "Le Crocodile Vert"
      },
      "geometry": {
        "type": "Point",
        "coordinates": [
          2.2893109,
          48.835468
        ]
      },
      "id": "node/828825713"
    },
    {
      "type": "Feature",
      "properties": {
        "@id": "node/829203592",
        "addr:city": "Paris",
        "addr:housenumber": "64",
        "addr:postcode": "75008",
        "addr:street": "Rue François 1er",
        "amenity": "bar",
        "name": "L'Écluse",
        "source": "cadastre-dgi-fr source : Direction Générale des Impôts - Cadastre. Mise à jour : 2010"
      },
      "geometry": {
        "type": "Point",
        "coordinates": [
          2.3016632,
          48.8700655
        ]
      },
      "id": "node/829203592"
    },
    {
      "type": "Feature",
      "properties": {
        "@id": "node/837769005",
        "addr:housenumber": "93",
        "addr:postcode": "75020",
        "addr:street": "Rue d'Avron",
        "amenity": "bar",
        "name": "Le Narval",
        "wheelchair": "yes"
      },
      "geometry": {
        "type": "Point",
        "coordinates": [
          2.4056082,
          48.8526933
        ]
      },
      "id": "node/837769005"
    },
    {
      "type": "Feature",
      "properties": {
        "@id": "node/839922619",
        "addr:housenumber": "5",
        "addr:street": "Rue de Berri",
        "amenity": "bar",
        "name": "Titty Twister",
        "source": "cadastre-dgi-fr source : Direction Générale des Impôts - Cadastre. Mise à jour : 2010"
      },
      "geometry": {
        "type": "Point",
        "coordinates": [
          2.3031735,
          48.8720198
        ]
      },
      "id": "node/839922619"
    },
    {
      "type": "Feature",
      "properties": {
        "@id": "node/867507827",
        "amenity": "bar",
        "name": "L'espace Pantin"
      },
      "geometry": {
        "type": "Point",
        "coordinates": [
          2.4051356,
          48.8974719
        ]
      },
      "id": "node/867507827"
    },
    {
      "type": "Feature",
      "properties": {
        "@id": "node/892913317",
        "addr:city": "Paris",
        "addr:housenumber": "49",
        "addr:street": "Rue Saint-Honoré",
        "amenity": "bar",
        "lottery": "yes",
        "name": "Le Sous Bock",
        "opening_hours": "Su-We 09:00-02:00; Th-Sa 09:00-05:00",
        "phone": "+33 1 40 26 45 61",
        "source": "cadastre-dgi-fr source : Direction Générale des Impôts - Cadastre. Mise à jour : 2010"
      },
      "geometry": {
        "type": "Point",
        "coordinates": [
          2.3451379,
          48.8608729
        ]
      },
      "id": "node/892913317"
    },
    {
      "type": "Feature",
      "properties": {
        "@id": "node/894713103",
        "addr:city": "Pantin",
        "addr:housenumber": "27",
        "addr:postcode": "93500",
        "addr:street": "Rue Victor Hugo",
        "amenity": "bar",
        "name": "Le Narval"
      },
      "geometry": {
        "type": "Point",
        "coordinates": [
          2.4038244,
          48.8948417
        ]
      },
      "id": "node/894713103"
    },
    {
      "type": "Feature",
      "properties": {
        "@id": "node/909529763",
        "amenity": "bar",
        "name": "Le Gandon"
      },
      "geometry": {
        "type": "Point",
        "coordinates": [
          2.3608058,
          48.8219547
        ]
      },
      "id": "node/909529763"
    },
    {
      "type": "Feature",
      "properties": {
        "@id": "node/913935034",
        "addr:housenumber": "159",
        "addr:street": "Rue de Grenelle",
        "amenity": "bar",
        "name": "Alain Milliat",
        "source": "cadastre-dgi-fr source : Direction Générale des Impôts - Cadastre. Mise à jour : 2010"
      },
      "geometry": {
        "type": "Point",
        "coordinates": [
          2.3064675,
          48.8577516
        ]
      },
      "id": "node/913935034"
    },
    {
      "type": "Feature",
      "properties": {
        "@id": "node/916588773",
        "addr:housenumber": "23",
        "addr:postcode": "75018",
        "addr:street": "Rue Marcadet",
        "amenity": "bar",
        "name": "Café Leon",
        "source": "local knowledge",
        "wifi": "free"
      },
      "geometry": {
        "type": "Point",
        "coordinates": [
          2.3534684,
          48.8903045
        ]
      },
      "id": "node/916588773"
    },
    {
      "type": "Feature",
      "properties": {
        "@id": "node/918317353",
        "alt_name": "Le Landon",
        "amenity": "bar",
        "level": "0",
        "name": "Le Landon Café",
        "source": "survey 12/2018"
      },
      "geometry": {
        "type": "Point",
        "coordinates": [
          2.3624673,
          48.8804001
        ]
      },
      "id": "node/918317353"
    },
    {
      "type": "Feature",
      "properties": {
        "@id": "node/918317419",
        "amenity": "bar",
        "level": "0",
        "name": "Le Chiquito",
        "opening_hours": "Mo-Fr 07:00-21:00; Sa 09:30-21:00",
        "opening_hours:covid19": "off",
        "tobacco": "yes"
      },
      "geometry": {
        "type": "Point",
        "coordinates": [
          2.3621112,
          48.8807734
        ]
      },
      "id": "node/918317419"
    },
    {
      "type": "Feature",
      "properties": {
        "@id": "node/933859703",
        "amenity": "bar"
      },
      "geometry": {
        "type": "Point",
        "coordinates": [
          2.3985124,
          48.8928215
        ]
      },
      "id": "node/933859703"
    },
    {
      "type": "Feature",
      "properties": {
        "@id": "node/938872763",
        "addr:housenumber": "19",
        "addr:street": "Avenue Kléber",
        "amenity": "bar",
        "name": "Le Rooftop",
        "source": "cadastre-dgi-fr source : Direction Générale des Impôts - Cadastre. Mise à jour : 2010"
      },
      "geometry": {
        "type": "Point",
        "coordinates": [
          2.2933108,
          48.871023
        ]
      },
      "id": "node/938872763"
    },
    {
      "type": "Feature",
      "properties": {
        "@id": "node/952341600",
        "amenity": "bar",
        "opening_hours": "Mo-Su 19:00-23:00"
      },
      "geometry": {
        "type": "Point",
        "coordinates": [
          2.3896612,
          48.8921927
        ]
      },
      "id": "node/952341600"
    },
    {
      "type": "Feature",
      "properties": {
        "@id": "node/971476014",
        "amenity": "bar",
        "name": "Le Julyann",
        "survey:date": "2018-05-05"
      },
      "geometry": {
        "type": "Point",
        "coordinates": [
          2.3423076,
          48.8742352
        ]
      },
      "id": "node/971476014"
    },
    {
      "type": "Feature",
      "properties": {
        "@id": "node/971476082",
        "amenity": "bar",
        "name": "Le Flash"
      },
      "geometry": {
        "type": "Point",
        "coordinates": [
          2.3418014,
          48.8752057
        ]
      },
      "id": "node/971476082"
    },
    {
      "type": "Feature",
      "properties": {
        "@id": "node/971476150",
        "amenity": "bar",
        "name": "Au Général la Fayette"
      },
      "geometry": {
        "type": "Point",
        "coordinates": [
          2.3412323,
          48.8750436
        ]
      },
      "id": "node/971476150"
    },
    {
      "type": "Feature",
      "properties": {
        "@id": "node/971476164",
        "amenity": "bar",
        "name": "Le Faubourg"
      },
      "geometry": {
        "type": "Point",
        "coordinates": [
          2.3424987,
          48.8741144
        ]
      },
      "id": "node/971476164"
    },
    {
      "type": "Feature",
      "properties": {
        "@id": "node/975023635",
        "amenity": "bar",
        "name": "Le Molière",
        "source": "cadastre-dgi-fr source : Direction Générale des Impôts - Cadastre. Mise à jour : 2010"
      },
      "geometry": {
        "type": "Point",
        "coordinates": [
          2.2700634,
          48.8551767
        ]
      },
      "id": "node/975023635"
    },
    {
      "type": "Feature",
      "properties": {
        "@id": "node/985435188",
        "addr:housenumber": "72",
        "addr:postcode": "75018",
        "addr:street": "Rue Lamarck",
        "amenity": "bar",
        "cuisine": "french",
        "name": "Le Refuge",
        "phone": "+33 1 42 62 01 62",
        "source": "cadastre-dgi-fr source : Direction Générale des Impôts - Cadastre. Mise à jour : 2010"
      },
      "geometry": {
        "type": "Point",
        "coordinates": [
          2.3389426,
          48.8900052
        ]
      },
      "id": "node/985435188"
    },
    {
      "type": "Feature",
      "properties": {
        "@id": "node/988948075",
        "addr:city": "Pantin",
        "addr:housenumber": "43",
        "addr:postcode": "93500",
        "addr:street": "Avenue Jean Lolive",
        "amenity": "bar",
        "name": "Bar de l'Espoir"
      },
      "geometry": {
        "type": "Point",
        "coordinates": [
          2.4010083,
          48.8910049
        ]
      },
      "id": "node/988948075"
    },
    {
      "type": "Feature",
      "properties": {
        "@id": "node/989431912",
        "amenity": "bar",
        "name": "Le Carillon",
        "phone": "+33 1 42 39 81 88"
      },
      "geometry": {
        "type": "Point",
        "coordinates": [
          2.3678599,
          48.8716183
        ]
      },
      "id": "node/989431912"
    },
    {
      "type": "Feature",
      "properties": {
        "@id": "node/990384086",
        "amenity": "bar",
        "level": "0",
        "name": "Le Louis Blanc",
        "source": "survey 11/2017"
      },
      "geometry": {
        "type": "Point",
        "coordinates": [
          2.3639112,
          48.8817018
        ]
      },
      "id": "node/990384086"
    },
    {
      "type": "Feature",
      "properties": {
        "@id": "node/1003594237",
        "addr:city": "Paris",
        "addr:housenumber": "89",
        "addr:postcode": "75003",
        "addr:street": "Rue Amelot",
        "amenity": "bar",
        "drink:club-mate": "yes",
        "name": "Le Zero Zero"
      },
      "geometry": {
        "type": "Point",
        "coordinates": [
          2.3677993,
          48.8604905
        ]
      },
      "id": "node/1003594237"
    },
    {
      "type": "Feature",
      "properties": {
        "@id": "node/1014690183",
        "amenity": "bar",
        "name": "La Fronde",
        "source": "cadastre-dgi-fr source : Direction Générale des Impôts - Cadastre. Mise à jour : 2010",
        "survey:date": "2018-09-22",
        "toilets:wheelchair": "no",
        "wheelchair": "limited"
      },
      "geometry": {
        "type": "Point",
        "coordinates": [
          2.3560654,
          48.8594585
        ]
      },
      "id": "node/1014690183"
    },
    {
      "type": "Feature",
      "properties": {
        "@id": "node/1015358394",
        "amenity": "bar",
        "name": "Le Galvani",
        "wheelchair": "no"
      },
      "geometry": {
        "type": "Point",
        "coordinates": [
          2.2895992,
          48.884166
        ]
      },
      "id": "node/1015358394"
    },
    {
      "type": "Feature",
      "properties": {
        "@id": "node/1023222092",
        "amenity": "bar",
        "name": "Café Belleville"
      },
      "geometry": {
        "type": "Point",
        "coordinates": [
          2.3748362,
          48.8710893
        ]
      },
      "id": "node/1023222092"
    },
    {
      "type": "Feature",
      "properties": {
        "@id": "node/1035787952",
        "amenity": "bar",
        "name": "Oued-Rhiou"
      },
      "geometry": {
        "type": "Point",
        "coordinates": [
          2.3671601,
          48.887207
        ]
      },
      "id": "node/1035787952"
    },
    {
      "type": "Feature",
      "properties": {
        "@id": "node/1068630302",
        "addr:housenumber": "16",
        "addr:street": "Rue Neuve de la Chardonniere",
        "amenity": "bar",
        "source": "cadastre-dgi-fr source : Direction Générale des Impôts - Cadastre. Mise à jour : 2010"
      },
      "geometry": {
        "type": "Point",
        "coordinates": [
          2.348388,
          48.895496
        ]
      },
      "id": "node/1068630302"
    },
    {
      "type": "Feature",
      "properties": {
        "@id": "node/1094366292",
        "addr:housenumber": "182",
        "addr:postcode": "75003",
        "addr:street": "Rue Saint-Martin",
        "amenity": "bar",
        "internet_access": "no",
        "name": "Le Bar'Ouf",
        "opening_hours": "Tu,We 17:30-01:00, Th-Sa 17:30-02:00",
        "source": "https://fr-fr.facebook.com/BarOuf"
      },
      "geometry": {
        "type": "Point",
        "coordinates": [
          2.3523099,
          48.8626564
        ]
      },
      "id": "node/1094366292"
    },
    {
      "type": "Feature",
      "properties": {
        "@id": "node/1096663299",
        "amenity": "bar",
        "name": "L'Étoile d'or"
      },
      "geometry": {
        "type": "Point",
        "coordinates": [
          2.3783255,
          48.8184928
        ]
      },
      "id": "node/1096663299"
    },
    {
      "type": "Feature",
      "properties": {
        "@id": "node/1111551193",
        "amenity": "bar"
      },
      "geometry": {
        "type": "Point",
        "coordinates": [
          2.2904321,
          48.8934011
        ]
      },
      "id": "node/1111551193"
    },
    {
      "type": "Feature",
      "properties": {
        "@id": "node/1113738981",
        "amenity": "bar",
        "name": "Au Métro"
      },
      "geometry": {
        "type": "Point",
        "coordinates": [
          2.3122657,
          48.8427362
        ]
      },
      "id": "node/1113738981"
    },
    {
      "type": "Feature",
      "properties": {
        "@id": "node/1114763120",
        "amenity": "bar",
        "name": "Bistrot Lumière"
      },
      "geometry": {
        "type": "Point",
        "coordinates": [
          2.3797004,
          48.8850887
        ]
      },
      "id": "node/1114763120"
    },
    {
      "type": "Feature",
      "properties": {
        "@id": "node/1118434386",
        "amenity": "bar",
        "name": "Au Longchamp d'Issy"
      },
      "geometry": {
        "type": "Point",
        "coordinates": [
          2.2678686,
          48.8224847
        ]
      },
      "id": "node/1118434386"
    },
    {
      "type": "Feature",
      "properties": {
        "@id": "node/1133510138",
        "amenity": "bar"
      },
      "geometry": {
        "type": "Point",
        "coordinates": [
          2.2871115,
          48.8926226
        ]
      },
      "id": "node/1133510138"
    },
    {
      "type": "Feature",
      "properties": {
        "@id": "node/1135295421",
        "amenity": "bar",
        "name": "L'Absolu Café"
      },
      "geometry": {
        "type": "Point",
        "coordinates": [
          2.2878021,
          48.8951187
        ]
      },
      "id": "node/1135295421"
    },
    {
      "type": "Feature",
      "properties": {
        "@id": "node/1135295422",
        "amenity": "bar"
      },
      "geometry": {
        "type": "Point",
        "coordinates": [
          2.2877074,
          48.8952297
        ]
      },
      "id": "node/1135295422"
    },
    {
      "type": "Feature",
      "properties": {
        "@id": "node/1145811934",
        "addr:city": "Paris",
        "addr:housenumber": "50",
        "addr:postcode": "75005",
        "addr:street": "Rue Descartes",
        "amenity": "bar",
        "name": "Chapi Chapo",
        "phone": "+33 1 43 54 28 47",
        "source": "cadastre-dgi-fr source : Direction Générale des Impôts - Cadastre. Mise à jour : 2011"
      },
      "geometry": {
        "type": "Point",
        "coordinates": [
          2.349036,
          48.8452357
        ]
      },
      "id": "node/1145811934"
    },
    {
      "type": "Feature",
      "properties": {
        "@id": "node/1164839323",
        "addr:city": "Paris",
        "addr:housenumber": "37",
        "addr:postcode": "75004",
        "addr:street": "Rue Quincampoix",
        "amenity": "bar",
        "cuisine": "french",
        "name": "Hellfest Corner",
        "outdoor_seating": "no",
        "restaurant": "yes",
        "website": "https://www.hellfestcorner.com/",
        "wheelchair": "limited"
      },
      "geometry": {
        "type": "Point",
        "coordinates": [
          2.350326,
          48.8608198
        ]
      },
      "id": "node/1164839323"
    },
    {
      "type": "Feature",
      "properties": {
        "@id": "node/1165739794",
        "amenity": "bar",
        "name": "Caveau des Oubliettes"
      },
      "geometry": {
        "type": "Point",
        "coordinates": [
          2.3467331,
          48.8520115
        ]
      },
      "id": "node/1165739794"
    },
    {
      "type": "Feature",
      "properties": {
        "@id": "node/1173675699",
        "addr:housenumber": "33",
        "addr:postcode": "75012",
        "addr:street": "Avenue Daumesnil",
        "amenity": "bar",
        "name": "Gamelle",
        "source": "cadastre-dgi-fr source : Direction Générale des Impôts - Cadastre. Mise à jour : 2011"
      },
      "geometry": {
        "type": "Point",
        "coordinates": [
          2.3744755,
          48.8478968
        ]
      },
      "id": "node/1173675699"
    },
    {
      "type": "Feature",
      "properties": {
        "@id": "node/1173675876",
        "addr:housenumber": "29",
        "addr:street": "Avenue Daumesnil",
        "amenity": "bar",
        "brewery:note": "1io",
        "internet_access": "no",
        "name": "Jamon 5",
        "source": "cadastre-dgi-fr source : Direction Générale des Impôts - Cadastre. Mise à jour : 2011"
      },
      "geometry": {
        "type": "Point",
        "coordinates": [
          2.374223,
          48.8480184
        ]
      },
      "id": "node/1173675876"
    },
    {
      "type": "Feature",
      "properties": {
        "@id": "node/1191165485",
        "amenity": "bar",
        "name": "La Ménagerie"
      },
      "geometry": {
        "type": "Point",
        "coordinates": [
          2.3591245,
          48.8368456
        ]
      },
      "id": "node/1191165485"
    },
    {
      "type": "Feature",
      "properties": {
        "@id": "node/1224795726",
        "amenity": "bar",
        "name": "Le Beyer Claude"
      },
      "geometry": {
        "type": "Point",
        "coordinates": [
          2.384073,
          48.8508003
        ]
      },
      "id": "node/1224795726"
    },
    {
      "type": "Feature",
      "properties": {
        "@id": "node/1225461874",
        "amenity": "bar",
        "description:covid19": "Fermé le samedi après-midi",
        "name": "Tabac du Temple",
        "opening_hours:covid19": "restricted",
        "shop": "tobacco"
      },
      "geometry": {
        "type": "Point",
        "coordinates": [
          2.362244,
          48.8670916
        ]
      },
      "id": "node/1225461874"
    },
    {
      "type": "Feature",
      "properties": {
        "@id": "node/1234174563",
        "addr:housenumber": "32",
        "addr:postcode": "75009",
        "addr:street": "Rue de Londres",
        "amenity": "bar",
        "cuisine": "french",
        "name": "Le Semaphore",
        "source": "cadastre-dgi-fr source : Direction Générale des Impôts - Cadastre. Mise à jour : 2011"
      },
      "geometry": {
        "type": "Point",
        "coordinates": [
          2.3278199,
          48.8776389
        ]
      },
      "id": "node/1234174563"
    },
    {
      "type": "Feature",
      "properties": {
        "@id": "node/1234207273",
        "addr:housenumber": "7",
        "addr:street": "Rue Pierre Fontaine",
        "amenity": "bar",
        "name": "Orphée",
        "source": "cadastre-dgi-fr source : Direction Générale des Impôts - Cadastre. Mise à jour : 2011"
      },
      "geometry": {
        "type": "Point",
        "coordinates": [
          2.3345229,
          48.8810281
        ]
      },
      "id": "node/1234207273"
    },
    {
      "type": "Feature",
      "properties": {
        "@id": "node/1234207497",
        "addr:city": "Paris",
        "addr:housenumber": "49",
        "addr:postcode": "75009",
        "addr:street": "Boulevard de Clichy",
        "amenity": "bar",
        "email": "contact@wallstreetpigalle.fr",
        "name": "Wall Street Bar",
        "opening_hours": "Mo-Sa 17:00-02:00; Su 17:00-00:00",
        "phone": "+33 9 86 24 57 77",
        "smoking": "outside",
        "source": "cadastre-dgi-fr source : Direction Générale des Impôts - Cadastre. Mise à jour : 2011",
        "website": "http://wallstreetbar.fr/"
      },
      "geometry": {
        "type": "Point",
        "coordinates": [
          2.3339314,
          48.8831839
        ]
      },
      "id": "node/1234207497"
    },
    {
      "type": "Feature",
      "properties": {
        "@id": "node/1235238111",
        "addr:housenumber": "4",
        "addr:postcode": "75009",
        "addr:street": "Rue Viollet-le-Duc",
        "amenity": "bar",
        "name": "Sister Midnight",
        "source": "cadastre-dgi-fr source : Direction Générale des Impôts - Cadastre. Mise à jour : 2011",
        "website": "https://www.facebook.com/sistermidnightbar/"
      },
      "geometry": {
        "type": "Point",
        "coordinates": [
          2.3407486,
          48.8814639
        ]
      },
      "id": "node/1235238111"
    },
    {
      "type": "Feature",
      "properties": {
        "@id": "node/1236518678",
        "addr:housenumber": "25",
        "addr:street": "Rue de Rochechouart",
        "amenity": "bar",
        "cuisine": "seafood;local;french;deli",
        "name": "Verre et Chope",
        "source": "cadastre-dgi-fr source : Direction Générale des Impôts - Cadastre. Mise à jour : 2011",
        "survey:date": "2018-05-05"
      },
      "geometry": {
        "type": "Point",
        "coordinates": [
          2.3447332,
          48.877868
        ]
      },
      "id": "node/1236518678"
    },
    {
      "type": "Feature",
      "properties": {
        "@id": "node/1236519210",
        "addr:housenumber": "32",
        "addr:postcode": "75009",
        "addr:street": "Rue de Rochechouart",
        "amenity": "bar",
        "name": "Mikkeller Bar",
        "source": "cadastre-dgi-fr source : Direction Générale des Impôts - Cadastre. Mise à jour : 2011"
      },
      "geometry": {
        "type": "Point",
        "coordinates": [
          2.3453009,
          48.8786152
        ]
      },
      "id": "node/1236519210"
    },
    {
      "type": "Feature",
      "properties": {
        "@id": "node/1240425293",
        "amenity": "bar",
        "name": "Bistrot Balard"
      },
      "geometry": {
        "type": "Point",
        "coordinates": [
          2.2791434,
          48.8368019
        ]
      },
      "id": "node/1240425293"
    },
    {
      "type": "Feature",
      "properties": {
        "@id": "node/1240426071",
        "amenity": "bar",
        "name": "Le Balard"
      },
      "geometry": {
        "type": "Point",
        "coordinates": [
          2.2791133,
          48.8369546
        ]
      },
      "id": "node/1240426071"
    },
    {
      "type": "Feature",
      "properties": {
        "@id": "node/1240426837",
        "amenity": "bar",
        "name": "Le Rouergue"
      },
      "geometry": {
        "type": "Point",
        "coordinates": [
          2.3419355,
          48.8651635
        ]
      },
      "id": "node/1240426837"
    },
    {
      "type": "Feature",
      "properties": {
        "@id": "node/1242439466",
        "addr:city": "Paris",
        "addr:country": "FR",
        "addr:housenumber": "25",
        "addr:postcode": "75009",
        "addr:street": "Rue de Trévise",
        "amenity": "bar",
        "email": "contact9@hypnosebar.com",
        "name": "Hypnose Bar",
        "opening_hours": "Mo-We 18:00-01:00; Th-Sa 18:00-02:00",
        "phone": "+33 9 53 81 92 76",
        "source": "cadastre-dgi-fr source : Direction Générale des Impôts - Cadastre. Mise à jour : 2011",
        "website": "http://www.hypnosebar.com"
      },
      "geometry": {
        "type": "Point",
        "coordinates": [
          2.3452393,
          48.8742323
        ]
      },
      "id": "node/1242439466"
    },
    {
      "type": "Feature",
      "properties": {
        "@id": "node/1243322704",
        "addr:housenumber": "5",
        "addr:street": "Rue de Chaumont",
        "amenity": "bar",
        "name": "La Bicyclette",
        "opening_hours": "Mo-We 12:00-14:30; Th-Fr 12:00-14:30, 18:00-23:00",
        "phone": "+33 1 73 71 05 13"
      },
      "geometry": {
        "type": "Point",
        "coordinates": [
          2.3721944,
          48.8813769
        ]
      },
      "id": "node/1243322704"
    },
    {
      "type": "Feature",
      "properties": {
        "@id": "node/1244411731",
        "amenity": "bar",
        "name": "Les Coteaux",
        "source": "survey"
      },
      "geometry": {
        "type": "Point",
        "coordinates": [
          2.3044201,
          48.846899
        ]
      },
      "id": "node/1244411731"
    },
    {
      "type": "Feature",
      "properties": {
        "@id": "node/1252381095",
        "amenity": "bar",
        "name": "Le Victor Hugo",
        "outdoor_seating": "yes",
        "source": "survey"
      },
      "geometry": {
        "type": "Point",
        "coordinates": [
          2.2940571,
          48.8984235
        ]
      },
      "id": "node/1252381095"
    },
    {
      "type": "Feature",
      "properties": {
        "@id": "node/1252381570",
        "amenity": "bar",
        "name": "Le Dugommier",
        "source": "survey",
        "wheelchair": "limited"
      },
      "geometry": {
        "type": "Point",
        "coordinates": [
          2.3895336,
          48.8385292
        ]
      },
      "id": "node/1252381570"
    },
    {
      "type": "Feature",
      "properties": {
        "@id": "node/1272453341",
        "addr:housenumber": "22",
        "addr:street": "Rue de Mazagran",
        "amenity": "bar",
        "name": "Le Xème",
        "source": "cadastre-dgi-fr source : Direction Générale des Impôts - Cadastre. Mise à jour : 2011"
      },
      "geometry": {
        "type": "Point",
        "coordinates": [
          2.352256,
          48.8710357
        ]
      },
      "id": "node/1272453341"
    },
    {
      "type": "Feature",
      "properties": {
        "@id": "node/1290869697",
        "amenity": "bar",
        "name": "Le Carrefour",
        "source": "cadastre-dgi-fr source : Direction Générale des Impôts - Cadastre. Mise à jour : 2011"
      },
      "geometry": {
        "type": "Point",
        "coordinates": [
          2.3772848,
          48.8655296
        ]
      },
      "id": "node/1290869697"
    },
    {
      "type": "Feature",
      "properties": {
        "@id": "node/1292143808",
        "addr:housenumber": "8",
        "addr:street": "Rue de Crussol",
        "amenity": "bar",
        "name": "L'Entrée des Artistes",
        "source": "cadastre-dgi-fr source : Direction Générale des Impôts - Cadastre. Mise à jour : 2011"
      },
      "geometry": {
        "type": "Point",
        "coordinates": [
          2.367484,
          48.8639701
        ]
      },
      "id": "node/1292143808"
    },
    {
      "type": "Feature",
      "properties": {
        "@id": "node/1292271731",
        "addr:city": "Paris",
        "addr:housenumber": "25",
        "addr:postcode": "75011",
        "addr:street": "Rue Moret",
        "amenity": "bar",
        "name": "Ribote"
      },
      "geometry": {
        "type": "Point",
        "coordinates": [
          2.3787673,
          48.8676463
        ]
      },
      "id": "node/1292271731"
    },
    {
      "type": "Feature",
      "properties": {
        "@id": "node/1298883468",
        "addr:housenumber": "52",
        "addr:postcode": "75011",
        "addr:street": "Rue Saint-Sébastien",
        "amenity": "bar",
        "name": "Charlie et sa Bière à Deux Balles",
        "opening_hours": "Mo-Sa 17:00-02:00; Su 16:00-01:00",
        "phone": "+33 6 73 94 43 88",
        "source": "cadastre-dgi-fr source : Direction Générale des Impôts - Cadastre. Mise à jour : 2011"
      },
      "geometry": {
        "type": "Point",
        "coordinates": [
          2.3732857,
          48.862227
        ]
      },
      "id": "node/1298883468"
    },
    {
      "type": "Feature",
      "properties": {
        "@id": "node/1299587200",
        "amenity": "bar",
        "name": "Le Neptune"
      },
      "geometry": {
        "type": "Point",
        "coordinates": [
          2.2796456,
          48.8903757
        ]
      },
      "id": "node/1299587200"
    },
    {
      "type": "Feature",
      "properties": {
        "@id": "node/1307259136",
        "addr:housenumber": "23",
        "addr:postcode": "75011",
        "addr:street": "Rue Daval",
        "amenity": "bar",
        "cuisine": "tea",
        "name": "Théobul",
        "opening_hours": "Mo-Su 12:00-19:00",
        "source": "cadastre-dgi-fr source : Direction Générale des Impôts - Cadastre. Mise à jour : 2011",
        "website": "https://theobul.wordpress.com/bubbletea-menu/"
      },
      "geometry": {
        "type": "Point",
        "coordinates": [
          2.3712528,
          48.8545792
        ]
      },
      "id": "node/1307259136"
    },
    {
      "type": "Feature",
      "properties": {
        "@id": "node/1307259214",
        "addr:housenumber": "74",
        "addr:street": "Rue de la Roquette",
        "amenity": "bar",
        "name": "Les Furieux",
        "source": "cadastre-dgi-fr source : Direction Générale des Impôts - Cadastre. Mise à jour : 2011",
        "website": "http://www.lesfurieux.fr/index2.htm"
      },
      "geometry": {
        "type": "Point",
        "coordinates": [
          2.3753418,
          48.8557579
        ]
      },
      "id": "node/1307259214"
    },
    {
      "type": "Feature",
      "properties": {
        "@id": "node/1307259285",
        "addr:housename": "Bar'Ock",
        "addr:housenumber": "18",
        "addr:postcode": "75011",
        "addr:street": "Rue Daval",
        "alt_name": "Bar'Ock",
        "amenity": "bar",
        "internet_access": "wlan",
        "internet_access:fee": "no",
        "name": "Bar'Ock",
        "source": "cadastre-dgi-fr source : Direction Générale des Impôts - Cadastre. Mise à jour : 2011",
        "website": "http://www.bar-ock.com"
      },
      "geometry": {
        "type": "Point",
        "coordinates": [
          2.3710068,
          48.854565
        ]
      },
      "id": "node/1307259285"
    },
    {
      "type": "Feature",
      "properties": {
        "@id": "node/1307270981",
        "addr:housenumber": "28",
        "addr:postcode": "75011",
        "addr:street": "Rue Keller",
        "amenity": "bar",
        "internet_access": "wlan",
        "name": "Bacardi Mojito Lab",
        "opening_hours": "Tu-Th 18:00-02:00; Fr-Sa 18:00-03:00; Su 18:00-01:00",
        "phone": "+33 1 75 77 23 95",
        "source": "cadastre-dgi-fr source : Direction Générale des Impôts - Cadastre. Mise à jour : 2011",
        "website": "https://www.mojitolab.com/"
      },
      "geometry": {
        "type": "Point",
        "coordinates": [
          2.3757046,
          48.855091
        ]
      },
      "id": "node/1307270981"
    },
    {
      "type": "Feature",
      "properties": {
        "@id": "node/1307271035",
        "addr:housenumber": "21",
        "addr:postcode": "75012",
        "addr:street": "Rue Keller",
        "amenity": "bar",
        "name": "Lone Palm",
        "opening_hours": "Tu-Sa 18:00-02:00",
        "phone": "+33 1 48 06 03 95",
        "source": "cadastre-dgi-fr source : Direction Générale des Impôts - Cadastre. Mise à jour : 2011"
      },
      "geometry": {
        "type": "Point",
        "coordinates": [
          2.3755893,
          48.8550046
        ]
      },
      "id": "node/1307271035"
    },
    {
      "type": "Feature",
      "properties": {
        "@id": "node/1326677896",
        "addr:housenumber": "15",
        "addr:postcode": "75018",
        "addr:street": "Rue Joseph de Maistre",
        "alt_name": "Le 20 Heures Vin",
        "amenity": "bar",
        "name": "Le Vingt Heures Vin",
        "phone": "+33 9 54665067"
      },
      "geometry": {
        "type": "Point",
        "coordinates": [
          2.3333605,
          48.886254
        ]
      },
      "id": "node/1326677896"
    },
    {
      "type": "Feature",
      "properties": {
        "@id": "node/1334007430",
        "addr:housenumber": "39",
        "addr:postcode": "75011",
        "addr:street": "Rue de Montreuil",
        "amenity": "bar",
        "name": "Les Tontons",
        "source": "cadastre-dgi-fr source : Direction Générale des Impôts - Cadastre. Mise à jour : 2011"
      },
      "geometry": {
        "type": "Point",
        "coordinates": [
          2.3874199,
          48.8504954
        ]
      },
      "id": "node/1334007430"
    },
    {
      "type": "Feature",
      "properties": {
        "@id": "node/1350464575",
        "amenity": "bar",
        "name": "Le Villageois"
      },
      "geometry": {
        "type": "Point",
        "coordinates": [
          2.3816769,
          48.86499
        ]
      },
      "id": "node/1350464575"
    },
    {
      "type": "Feature",
      "properties": {
        "@id": "node/1351907683",
        "addr:housenumber": "36",
        "addr:street": "Boulevard de la Bastille",
        "amenity": "bar",
        "capacity": "50",
        "cuisine": "french",
        "name": "Café de la Presse",
        "smoking": "outside",
        "source": "cadastre-dgi-fr source : Direction Générale des Impôts - Cadastre. Mise à jour : 2011"
      },
      "geometry": {
        "type": "Point",
        "coordinates": [
          2.3688684,
          48.850343
        ]
      },
      "id": "node/1351907683"
    },
    {
      "type": "Feature",
      "properties": {
        "@id": "node/1373984769",
        "amenity": "bar",
        "name": "Le Salon",
        "source": "survey",
        "wheelchair": "limited"
      },
      "geometry": {
        "type": "Point",
        "coordinates": [
          2.3425149,
          48.8704863
        ]
      },
      "id": "node/1373984769"
    },
    {
      "type": "Feature",
      "properties": {
        "@id": "node/1374463830",
        "amenity": "bar",
        "name": "Bar de la Piscine"
      },
      "geometry": {
        "type": "Point",
        "coordinates": [
          2.3884076,
          48.8831571
        ]
      },
      "id": "node/1374463830"
    },
    {
      "type": "Feature",
      "properties": {
        "@id": "node/1404449817",
        "amenity": "bar",
        "name": "Les Souffleurs"
      },
      "geometry": {
        "type": "Point",
        "coordinates": [
          2.3550993,
          48.857093
        ]
      },
      "id": "node/1404449817"
    },
    {
      "type": "Feature",
      "properties": {
        "@id": "node/1434075749",
        "amenity": "bar",
        "name": "Le Rallye Tournelle",
        "phone": "+33 143542965"
      },
      "geometry": {
        "type": "Point",
        "coordinates": [
          2.3553355,
          48.8497121
        ]
      },
      "id": "node/1434075749"
    },
    {
      "type": "Feature",
      "properties": {
        "@id": "node/1437579349",
        "amenity": "bar",
        "name": "La fontaine Henry IV",
        "source": "survey"
      },
      "geometry": {
        "type": "Point",
        "coordinates": [
          2.3914872,
          48.8716241
        ]
      },
      "id": "node/1437579349"
    },
    {
      "type": "Feature",
      "properties": {
        "@id": "node/1450939214",
        "amenity": "bar",
        "name": "La Tendresse"
      },
      "geometry": {
        "type": "Point",
        "coordinates": [
          2.4034794,
          48.8278377
        ]
      },
      "id": "node/1450939214"
    },
    {
      "type": "Feature",
      "properties": {
        "@id": "node/1450939226",
        "amenity": "bar",
        "name": "Le Charenton"
      },
      "geometry": {
        "type": "Point",
        "coordinates": [
          2.4036725,
          48.827707
        ]
      },
      "id": "node/1450939226"
    },
    {
      "type": "Feature",
      "properties": {
        "@id": "node/1459478739",
        "amenity": "bar",
        "name": "La Flèche d'Or",
        "opening_hours": "\"events on program\"",
        "wheelchair": "no",
        "wikidata": "Q10497230"
      },
      "geometry": {
        "type": "Point",
        "coordinates": [
          2.4029865,
          48.8594342
        ]
      },
      "id": "node/1459478739"
    },
    {
      "type": "Feature",
      "properties": {
        "@id": "node/1477656356",
        "amenity": "bar",
        "name": "Julo"
      },
      "geometry": {
        "type": "Point",
        "coordinates": [
          2.3697771,
          48.8637107
        ]
      },
      "id": "node/1477656356"
    },
    {
      "type": "Feature",
      "properties": {
        "@id": "node/1482958092",
        "amenity": "bar",
        "name": "Les Domaines de Sophie",
        "source": "survey"
      },
      "geometry": {
        "type": "Point",
        "coordinates": [
          2.3386203,
          48.8750628
        ]
      },
      "id": "node/1482958092"
    },
    {
      "type": "Feature",
      "properties": {
        "@id": "node/1484054970",
        "amenity": "bar",
        "name": "Le Vénitien"
      },
      "geometry": {
        "type": "Point",
        "coordinates": [
          2.335756,
          48.8710599
        ]
      },
      "id": "node/1484054970"
    },
    {
      "type": "Feature",
      "properties": {
        "@id": "node/1486314027",
        "amenity": "bar",
        "name": "Le Petit Bistrot"
      },
      "geometry": {
        "type": "Point",
        "coordinates": [
          2.3467197,
          48.8706525
        ]
      },
      "id": "node/1486314027"
    },
    {
      "type": "Feature",
      "properties": {
        "@id": "node/1488772080",
        "amenity": "bar",
        "cuisine": "coffee_shop",
        "name": "Café des Deux Gares",
        "source": "survey 12/2018"
      },
      "geometry": {
        "type": "Point",
        "coordinates": [
          2.3564644,
          48.8784174
        ]
      },
      "id": "node/1488772080"
    },
    {
      "type": "Feature",
      "properties": {
        "@id": "node/1488772097",
        "amenity": "bar",
        "name": "Le Camélia"
      },
      "geometry": {
        "type": "Point",
        "coordinates": [
          2.3577149,
          48.8796001
        ]
      },
      "id": "node/1488772097"
    },
    {
      "type": "Feature",
      "properties": {
        "@id": "node/1489177443",
        "amenity": "bar",
        "name": "La Rose Rouge",
        "opening_hours": "Mo-Sa 14:00-02:00"
      },
      "geometry": {
        "type": "Point",
        "coordinates": [
          2.3637372,
          48.8811904
        ]
      },
      "id": "node/1489177443"
    },
    {
      "type": "Feature",
      "properties": {
        "@id": "node/1489177454",
        "amenity": "bar",
        "name": "Le Rond Point"
      },
      "geometry": {
        "type": "Point",
        "coordinates": [
          2.3708586,
          48.8827558
        ]
      },
      "id": "node/1489177454"
    },
    {
      "type": "Feature",
      "properties": {
        "@id": "node/1490922325",
        "amenity": "bar",
        "name": "Aux Gorges du Tarn"
      },
      "geometry": {
        "type": "Point",
        "coordinates": [
          2.3349268,
          48.8700724
        ]
      },
      "id": "node/1490922325"
    },
    {
      "type": "Feature",
      "properties": {
        "@id": "node/1490922371",
        "amenity": "bar",
        "name": "Le Cesar"
      },
      "geometry": {
        "type": "Point",
        "coordinates": [
          2.3368573,
          48.8672079
        ]
      },
      "id": "node/1490922371"
    },
    {
      "type": "Feature",
      "properties": {
        "@id": "node/1503093279",
        "amenity": "bar",
        "name": "La Fontaine Molière"
      },
      "geometry": {
        "type": "Point",
        "coordinates": [
          2.3368066,
          48.8658764
        ]
      },
      "id": "node/1503093279"
    },
    {
      "type": "Feature",
      "properties": {
        "@id": "node/1544890373",
        "amenity": "bar",
        "name": "La Reale",
        "wheelchair": "no"
      },
      "geometry": {
        "type": "Point",
        "coordinates": [
          2.4104272,
          48.8530681
        ]
      },
      "id": "node/1544890373"
    },
    {
      "type": "Feature",
      "properties": {
        "@id": "node/1563764760",
        "amenity": "bar",
        "name": "Au Petit Bar",
        "wifi": "yes"
      },
      "geometry": {
        "type": "Point",
        "coordinates": [
          2.3551119,
          48.8376093
        ]
      },
      "id": "node/1563764760"
    },
    {
      "type": "Feature",
      "properties": {
        "@id": "node/1568009811",
        "amenity": "bar",
        "email": "lecommensal@free.fr",
        "name": "Le Commensal",
        "opening_hours": "Mo-Fr 06:00-01:00",
        "phone": "+33 1 46 48 75 95",
        "wheelchair": "limited"
      },
      "geometry": {
        "type": "Point",
        "coordinates": [
          2.2799037,
          48.8321145
        ]
      },
      "id": "node/1568009811"
    },
    {
      "type": "Feature",
      "properties": {
        "@id": "node/1579618649",
        "amenity": "bar",
        "contact:housenumber": "177",
        "contact:postcode": "75014",
        "contact:street": "Boulevard Brune",
        "name": "La Bouffarde"
      },
      "geometry": {
        "type": "Point",
        "coordinates": [
          2.3231923,
          48.8239653
        ]
      },
      "id": "node/1579618649"
    },
    {
      "type": "Feature",
      "properties": {
        "@id": "node/1579628422",
        "amenity": "bar",
        "name": "Le Royal Vouvray"
      },
      "geometry": {
        "type": "Point",
        "coordinates": [
          2.3248231,
          48.8270872
        ]
      },
      "id": "node/1579628422"
    },
    {
      "type": "Feature",
      "properties": {
        "@id": "node/1579642957",
        "amenity": "bar",
        "name": "Caprice Café"
      },
      "geometry": {
        "type": "Point",
        "coordinates": [
          2.3257001,
          48.8274683
        ]
      },
      "id": "node/1579642957"
    },
    {
      "type": "Feature",
      "properties": {
        "@id": "node/1598071225",
        "amenity": "bar"
      },
      "geometry": {
        "type": "Point",
        "coordinates": [
          2.3191153,
          48.8337665
        ]
      },
      "id": "node/1598071225"
    },
    {
      "type": "Feature",
      "properties": {
        "@id": "node/1616985541",
        "addr:housenumber": "74",
        "addr:street": "rue des Martyrs",
        "amenity": "bar",
        "name": "La Fourmi",
        "phone": "+33 1 42 64 70 35",
        "smoking": "no"
      },
      "geometry": {
        "type": "Point",
        "coordinates": [
          2.3397496,
          48.8823251
        ]
      },
      "id": "node/1616985541"
    },
    {
      "type": "Feature",
      "properties": {
        "@id": "node/1618002590",
        "amenity": "bar",
        "name": "La Francaise"
      },
      "geometry": {
        "type": "Point",
        "coordinates": [
          2.3561752,
          48.887457
        ]
      },
      "id": "node/1618002590"
    },
    {
      "type": "Feature",
      "properties": {
        "@id": "node/1620425824",
        "addr:postcode": "75020",
        "addr:street": "Rue du Cambodge",
        "amenity": "bar",
        "name": "Au Bon Coin"
      },
      "geometry": {
        "type": "Point",
        "coordinates": [
          2.3983197,
          48.8658704
        ]
      },
      "id": "node/1620425824"
    },
    {
      "type": "Feature",
      "properties": {
        "@id": "node/1650160704",
        "addr:housenumber": "99",
        "addr:postcode": "75018",
        "addr:street": "Rue Championnet",
        "amenity": "bar",
        "name": "Point Bar"
      },
      "geometry": {
        "type": "Point",
        "coordinates": [
          2.341182,
          48.8956894
        ]
      },
      "id": "node/1650160704"
    },
    {
      "type": "Feature",
      "properties": {
        "@id": "node/1667270078",
        "addr:city": "Paris",
        "addr:country": "FR",
        "addr:housenumber": "22",
        "addr:postcode": "75005",
        "addr:street": "Rue du Pot de Fer",
        "amenity": "bar",
        "name": "The Hide Out"
      },
      "geometry": {
        "type": "Point",
        "coordinates": [
          2.34832,
          48.84293
        ]
      },
      "id": "node/1667270078"
    },
    {
      "type": "Feature",
      "properties": {
        "@id": "node/1667562696",
        "addr:postcode": "75018",
        "amenity": "bar",
        "name": "Le Village",
        "outdoor_seating": "yes",
        "smoking": "outside",
        "wifi": "yes"
      },
      "geometry": {
        "type": "Point",
        "coordinates": [
          2.3443629,
          48.894667
        ]
      },
      "id": "node/1667562696"
    },
    {
      "type": "Feature",
      "properties": {
        "@id": "node/1667563844",
        "addr:postcode": "75018",
        "amenity": "bar",
        "description": "Tobacco",
        "food": "no",
        "name": "Le Diplomate",
        "opening_hours:covid19": "open",
        "outdoor_seating": "no",
        "smoking": "outside",
        "tobacco": "yes",
        "wifi": "no"
      },
      "geometry": {
        "type": "Point",
        "coordinates": [
          2.343368,
          48.89495
        ]
      },
      "id": "node/1667563844"
    },
    {
      "type": "Feature",
      "properties": {
        "@id": "node/1667577648",
        "amenity": "bar",
        "name": "Le Simplon",
        "outdoor_seating": "yes"
      },
      "geometry": {
        "type": "Point",
        "coordinates": [
          2.3475036,
          48.8938461
        ]
      },
      "id": "node/1667577648"
    },
    {
      "type": "Feature",
      "properties": {
        "@id": "node/1668675883",
        "addr:postcode": "75018",
        "amenity": "bar",
        "name": "Le Reinitas"
      },
      "geometry": {
        "type": "Point",
        "coordinates": [
          2.3427038,
          48.8935069
        ]
      },
      "id": "node/1668675883"
    },
    {
      "type": "Feature",
      "properties": {
        "@id": "node/1668711668",
        "addr:city": "Paris",
        "addr:housenumber": "3",
        "addr:postcode": "75018",
        "addr:street": "Rue Letort",
        "amenity": "bar",
        "name": "Dionis"
      },
      "geometry": {
        "type": "Point",
        "coordinates": [
          2.342913,
          48.893776
        ]
      },
      "id": "node/1668711668"
    },
    {
      "type": "Feature",
      "properties": {
        "@id": "node/1668734745",
        "amenity": "bar",
        "name": "Le Bénin"
      },
      "geometry": {
        "type": "Point",
        "coordinates": [
          2.3462508,
          48.8941707
        ]
      },
      "id": "node/1668734745"
    },
    {
      "type": "Feature",
      "properties": {
        "@id": "node/1668735604",
        "amenity": "bar",
        "name": "Le Costa Rica"
      },
      "geometry": {
        "type": "Point",
        "coordinates": [
          2.3464051,
          48.8941309
        ]
      },
      "id": "node/1668735604"
    },
    {
      "type": "Feature",
      "properties": {
        "@id": "node/1668740214",
        "amenity": "bar"
      },
      "geometry": {
        "type": "Point",
        "coordinates": [
          2.346192,
          48.8940296
        ]
      },
      "id": "node/1668740214"
    },
    {
      "type": "Feature",
      "properties": {
        "@id": "node/1668766274",
        "amenity": "bar",
        "created_by": "iLOE 1.9",
        "name": "Le Flash",
        "opening_hours:covid19": "open",
        "shop": "tobacco"
      },
      "geometry": {
        "type": "Point",
        "coordinates": [
          2.347729,
          48.89361
        ]
      },
      "id": "node/1668766274"
    },
    {
      "type": "Feature",
      "properties": {
        "@id": "node/1668852308",
        "addr:postcode": "75018",
        "amenity": "bar",
        "name": "Café Poteau"
      },
      "geometry": {
        "type": "Point",
        "coordinates": [
          2.343523,
          48.89304
        ]
      },
      "id": "node/1668852308"
    },
    {
      "type": "Feature",
      "properties": {
        "@id": "node/1670102655",
        "amenity": "bar",
        "name": "Le Cadran du faubourg"
      },
      "geometry": {
        "type": "Point",
        "coordinates": [
          2.3544917,
          48.87322
        ]
      },
      "id": "node/1670102655"
    },
    {
      "type": "Feature",
      "properties": {
        "@id": "node/1670106050",
        "amenity": "bar",
        "name": "Le Réveil du 10e"
      },
      "geometry": {
        "type": "Point",
        "coordinates": [
          2.358021,
          48.8712159
        ]
      },
      "id": "node/1670106050"
    },
    {
      "type": "Feature",
      "properties": {
        "@id": "node/1670117368",
        "amenity": "bar",
        "name": "Le Navy",
        "tobacco": "yes"
      },
      "geometry": {
        "type": "Point",
        "coordinates": [
          2.360048,
          48.870326
        ]
      },
      "id": "node/1670117368"
    },
    {
      "type": "Feature",
      "properties": {
        "@id": "node/1670126985",
        "amenity": "bar",
        "name": "Le Coq"
      },
      "geometry": {
        "type": "Point",
        "coordinates": [
          2.3611035,
          48.8697612
        ]
      },
      "id": "node/1670126985"
    },
    {
      "type": "Feature",
      "properties": {
        "@id": "node/1670131209",
        "amenity": "bar",
        "name": "Le Côte d'Azur"
      },
      "geometry": {
        "type": "Point",
        "coordinates": [
          2.361643,
          48.869473
        ]
      },
      "id": "node/1670131209"
    },
    {
      "type": "Feature",
      "properties": {
        "@id": "node/1670305377",
        "addr:city": "Paris",
        "addr:housenumber": "39",
        "addr:postcode": "75010",
        "addr:street": "Rue de Lancry",
        "amenity": "bar",
        "name": "Au Métro",
        "opening_hours": "Mo-Su 07:00-02:00",
        "outdoor_seating": "yes",
        "phone": "+33 1 42 03 61 65",
        "website": "https://www.facebook.com/RestauMetro/"
      },
      "geometry": {
        "type": "Point",
        "coordinates": [
          2.361396,
          48.870973
        ]
      },
      "id": "node/1670305377"
    },
    {
      "type": "Feature",
      "properties": {
        "@id": "node/1670347985",
        "amenity": "bar",
        "name": "L'Ariel",
        "opening_hours:covid19": "open",
        "tobacco": "yes"
      },
      "geometry": {
        "type": "Point",
        "coordinates": [
          2.3620746,
          48.8716095
        ]
      },
      "id": "node/1670347985"
    },
    {
      "type": "Feature",
      "properties": {
        "@id": "node/1670389118",
        "addr:street": "Rue de Lancry",
        "amenity": "bar",
        "name": "Le Cinquante",
        "phone": "+33 1 42 02 36 83"
      },
      "geometry": {
        "type": "Point",
        "coordinates": [
          2.3626809,
          48.871916
        ]
      },
      "id": "node/1670389118"
    },
    {
      "type": "Feature",
      "properties": {
        "@id": "node/1670401972",
        "amenity": "bar",
        "brewery": "Affligem",
        "internet_access": "no",
        "level": "0",
        "name": "La Patache",
        "source": "survey 12/2018"
      },
      "geometry": {
        "type": "Point",
        "coordinates": [
          2.363565,
          48.872686
        ]
      },
      "id": "node/1670401972"
    },
    {
      "type": "Feature",
      "properties": {
        "@id": "node/1674855139",
        "addr:city": "Paris",
        "addr:housenumber": "79",
        "addr:postcode": "75018",
        "addr:street": "Boulevard Barbès",
        "amenity": "bar",
        "name": "Le Rallye",
        "opening_hours:covid19": "off",
        "source": "cadastre-dgi-fr source : Direction Générale des Impôts - Cadastre. Mise à jour : 2013",
        "tobacco": "yes"
      },
      "geometry": {
        "type": "Point",
        "coordinates": [
          2.3494118,
          48.8914347
        ]
      },
      "id": "node/1674855139"
    },
    {
      "type": "Feature",
      "properties": {
        "@id": "node/1674935278",
        "addr:postcode": "75018",
        "amenity": "bar",
        "name": "Bistrot le Sainte-Isaure"
      },
      "geometry": {
        "type": "Point",
        "coordinates": [
          2.344049,
          48.892985
        ]
      },
      "id": "node/1674935278"
    },
    {
      "type": "Feature",
      "properties": {
        "@id": "node/1674955048",
        "addr:postcode": "75018",
        "amenity": "bar",
        "created_by": "iLOE 1.9"
      },
      "geometry": {
        "type": "Point",
        "coordinates": [
          2.345259,
          48.89392
        ]
      },
      "id": "node/1674955048"
    },
    {
      "type": "Feature",
      "properties": {
        "@id": "node/1679463071",
        "amenity": "bar",
        "created_by": "iLOE 1.9",
        "name": "Chez Gaston"
      },
      "geometry": {
        "type": "Point",
        "coordinates": [
          2.351542,
          48.891422
        ]
      },
      "id": "node/1679463071"
    },